IATA,ICAO,Name,Latitude,Longitude,UTC Offset (s),Max Runway Length (ft),Airlines
BOO,ENBO,Bodø Norway,67.2692,14.3653,3600,11103,
OSY,ENNM,Namsos Norway,64.4719,11.5783,3600,2741,
CZX,ZSCG,Changzhou China,31.9181,119.777,28800,11155,
KDI,WAWW,Kendari Indonesia,-4.0817,122.418,28800,6890,
YAM,CYAM,Sault Ste. Marie ON Canada,46.485,-84.5094,-21600,6144,NCA
AAL,EKYT,Aalborg Denmark,57.0928,9.8489,3600,8689,KL
AAR,EKAH,Aarhus Denmark,56.3,10.6189,3600,9088,
ABD,OIAA,Abadan Iran,30.3706,48.2278,12600,10263,KLD
ABA,UNAA,Abakan Russia,53.74,91.385,25200,10648,SUD
YXX,CYXX,Abbotsford BC Canada,49.025,-122.36,-28800,9613,"WS,WSH"
ABR,KABR,Aberdeen SD,45.4489,-98.4217,-21600,6893,"DL,NCA"
ABZ,EGPD,Aberdeen United Kingdom,57.2042,-2.1978,0,6404,"AF,KL,VS"
AHB,OEAB,Abha Saudi Arabia,18.2403,42.6564,10800,11006,SV
ABJ,DIAP,Abidjan Cote D'Ivoire,5.2592,-3.9264,0,9896,"AF,KLD,ME,PAH"
VJI,KVJI,Abingdon VA,36.6869,-82.0331,0,4569,
AUH,OMAA,Abu Dhabi United Arab Emirates,24.4325,54.65,14400,13475,"AZ,KLD,KL,ME,SV"
ABV,DNAA,Abuja Nigeria,9.0067,7.2631,3600,11848,"AF,DVH"
AEH,FTTC,Abéché Chad,13.8469,20.8489,3600,9236,
ACA,MMAA,Acapulco Mexico,16.7564,-99.7531,-21600,10833,"AM,DVH,WAH"
ACC,DGAA,Accra Ghana,5.605,-0.1667,0,11391,"DL,KLD,KL,ME,PAH"
ADK,PADK,Adak AK,51.8781,-176.646,-36000,7775,
ADA,LTAF,Adana Turkey,36.9819,35.28,10800,8985,
ADD,HAAB,Addis Ababa Ethiopia,8.9772,38.7992,10800,12428,"KQD,KQ,SV"
ADL,YPAD,Adelaide Australia,-34.9442,138.5308,37800,10183,"VA,VAH"
ADE,OYAA,Aden Yemen,12.8292,45.03,10800,10141,
AZR,DAUA,Adrar Algeria,27.8392,-0.1853,3600,9856,
AJY,DRZA,Agades Niger,16.9631,7.9917,3600,9853,
AGA,GMAD,Agadir Morocco,30.3225,-9.4114,0,10516,
AGF,LFBA,Agen France,44.1747,0.5906,3600,7095,
BQN,TJBQ,Aguadilla PR,18.4942,-67.1289,-18000,11732,DVH
AGU,MMAS,Aguascalientes Mexico,21.7053,-102.318,-21600,9918,"AM,NW"
AHE,NTHE,Ahe French Polynesia,-14.4275,-146.255,-39600,4068,
AMD,VAAH,Ahemdabad India,23.0708,72.6264,19800,11547,JAD
AEO,GQNA,Aioun El Atrouss Mauritania,16.7111,-9.6378,0,2500,
AJA,LFKJ,Ajaccio France,41.9233,8.8028,3600,7905,AF
AKE,FOGA,Akieni Gabon,-1.1292,13.9206,3600,2500,
AXT,RJSK,Akita Japan,39.6156,140.219,32400,8200,KE
AJJ,GQNJ,Akjoujt Mauritania,19.7328,-14.3831,0,2500,
CAK,KCAK,Akron OH,40.9164,-81.4422,-18000,8217,"DL,DVH"
AKT,LCRA,Akrotiri Cyprus,34.5903,32.9875,7200,8996,
AKU,ZWAK,Aksu Xinjiang Uyghur China,41.2625,80.2917,28800,2500,
SCO,UATE,Aktau Kazakhstan,43.86,51.0906,18000,8704,
AKX,UATT,Aktobe Kazakhstan,50.2456,57.2064,18000,10170,
ABT,OEBA,Al Baha Saudi Arabia,20.2958,41.6342,10800,10984,SV
AJF,OESK,Al Jouf Saudi Arabia,29.7853,40.0994,10800,12002,SV
NJF,ORNI,Al Najaf Iraq,32.0064,44.3847,10800,9843,ME
AQI,OEPA,Al Qaisumah Saudi Arabia,28.3353,46.125,10800,9866,SV
K11,OTBH,Al Udeid AB Qatar,25.1169,51.3147,10800,12336,
HOF,OEAH,Al-Ahsa Saudi Arabia,25.2861,49.4861,10800,10070,
DWD,OEDM,Al-Dawadmi Saudi Arabia,24.4497,44.1211,10800,10031,
ULH,OEAO,Al-Ula Saudi Arabia,26.4831,38.1167,10800,10007,
ABY,KABY,Albany GA,31.5356,-84.1944,-18000,6612,DL
ALB,KALB,Albany NY,42.7475,-73.8028,-18000,8516,"DL,DVH,NW"
ABQ,KABQ,Albuquerque NM,35.04,-106.609,-25200,13774,"AM,DL,DVH,NW,WAH"
ABX,YMAY,Albury Australia,-36.0678,146.958,39600,6229,VA
YLT,CYLT,Alert Canada,82.5178,-62.2806,-14400,5525,
HBE,HEBA,Alexandria Al Iskandariyah Egypt,30.9178,29.6964,7200,11173,"SV,SVD"
ALY,HEAX,Alexandria Egypt,31.1839,29.9486,7200,7225,KLD
HEB,HEBA,Alexandria Egypt,30.9181,29.6953,7200,11173,
AEX,KAEX,Alexandria LA,31.3272,-92.5483,-21600,9372,"DL,DVH,NW"
ESF,KESF,Alexandria-Regional LA,31.3942,-92.2953,-21600,5993,"DVH,NW"
AXD,LGAL,Alexandroupolis Greece,40.8558,25.9558,7200,8519,
AHO,LIEA,Alghero Sassari Italy,40.6303,8.2878,3600,10199,AZD
ALG,DAAG,Algiers Algeria,36.6906,3.2139,3600,11502,"AF,AZD,SV,SVD"
ALC,LEAL,Alicante Spain,38.2811,-0.5581,3600,10292,"SUD,HVD"
ASP,YBAS,Alice Springs Australia,-23.8067,133.902,34200,8003,
IXD,VIAL,Allahabad India,25.4406,81.735,19800,2500,KLD
ABE,KABE,Allentown PA,40.6517,-75.44,-18000,7600,"DL,DVH,NW,PAH"
AIA,KAIA,Alliance NE,42.0531,-102.804,-25200,9195,WAH
ALA,UAAA,Almaty Kazakhstan,43.3517,77.0403,18000,14438,"SUD,KL"
LEI,LEAM,Almería Spain,36.8439,-2.37,3600,10494,
APN,KAPN,Alpena MI,45.0781,-83.5603,-18000,9015,"DL,DVH,NCA,NW"
AHM,FSAL,Alphonse Island Seychelles,-7.0081,52.7289,14400,2500,
ALF,ENAT,Alta Norway,69.9756,23.3714,3600,7479,
ASJ,RJKA,Amami Oshima Japan,28.4306,129.712,32400,6575,
AMA,KAMA,Amarillo TX,35.2186,-101.706,-21600,13524,"DVH,NW"
IVA,FMNJ,Ambanja Madagascar,-13.6503,48.4733,10800,2500,
WAM,FMMZ,Ambatondrazaka Madagascar,-17.8044,48.4414,10800,2500,
AMB,FMNE,Ambilobe Madagascar,-13.1831,48.9833,10800,2500,
AMQ,WAPP,Ambon Indonesia,-3.7067,128.0889,32400,8238,"DVH,KLD"
AMM,OJAI,Amman Jordan,31.7214,35.9931,7200,11999,"AF,DVH,KLD,ME,SV,SVD"
AMP,FMSY,Ampanihy Madagascar,-24.7,44.7333,10800,3609,
AMS,EHAM,Amsterdam Netherlands,52.3081,4.7628,3600,12468,"AF,AZ,OK,DL,DVH,KQD,KQ,KLD,KL,NW,PAH,ROH,HV,HVD"
AAA,NTGA,Anaa French Polynesia,-17.3547,-145.483,-39600,4921,
HVA,FMNL,Analalava Madagascar,-14.6344,47.7725,10800,3937,
AAQ,URKA,Anapa Russia,45.0019,37.3467,10800,8260,SUD
APS,SWNS,Anapolis Brazil,-16.3622,-48.9269,-7200,8800,
ANC,PANC,Anchorage AK,61.1742,-149.996,-32400,12366,"AS,DL,DVH,KLD,NW,WAH"
AOI,LIPY,Ancona Italy,43.6164,13.3619,3600,9811,
SDN,ENSD,Anda Sandane Norway,61.8297,6.1056,3600,2741,
ZWA,FMND,Andapa Madagascar,-14.6497,49.6167,10800,4101,
UAM,PGUA,Andersen AFB Guam,13.5839,144.93,36000,11218,
ANX,ENAN,Andoya Norway,69.2925,16.1442,3600,8067,
ADW,KADW,Andrews AFB MD,38.8106,-76.8667,-18000,9781,
CRK,RPLC,Angeles City Philippines,15.1858,120.56,28800,10575,
AXA,TQPF,Anguilla British Virgin Islands,18.2047,-63.0536,-14400,5460,SBS
AJM,FMCV,Anjouan Comoros,-12.1331,44.4331,10800,4362,
ESB,LTAC,Ankara Turkey,40.1281,32.9942,7200,12331,SVD
JVA,FMMK,Ankavandra Madagascar,-18.8,45.2833,10800,3281,
WAK,FMSZ,Ankazoabo Madagascar,-22.3044,44.5397,10800,2500,
AAE,DABB,Annaba Algeria,36.8219,7.8094,3600,9815,
NCY,LFLP,Annecy France,45.9292,6.0986,3600,5289,
AYT,LTAI,Antalya Turkey,36.9,30.7928,7200,11223,SUD
TNR,FMMI,Antananarivo Madagascar,-18.7967,47.4778,10800,10174,AF
ANF,SCFA,Antofagasta Chile,-23.4442,-70.4444,-10800,8611,PAH
WAQ,FMMG,Antsalova Madagascar,-18.7053,44.6244,10800,3018,
ANM,FMNH,Antsirabato Madagascar,-14.9992,50.32,10800,3914,
WAI,FMNW,Antsohihy Madagascar,-14.9106,47.9936,10800,2500,
ANR,EBAW,Antwerp Belgium,51.1892,4.46,3600,5392,KLD
AOJ,RJSA,Aomori Japan,40.7347,140.691,32400,9851,KE
APW,NSFA,Apia Samoa,-13.8292,-171.997,-39600,10369,VA
ATW,KATW,Appleton WI,44.2567,-88.5192,-21600,8015,"DL,DVH,NCA,NW"
AQJ,OJAQ,Aqaba Jordan,29.6114,35.0181,7200,9878,
AJU,SBAR,Aracaju Brazil,-10.9839,-37.0703,-7200,9152,GLO
ARW,LRAR,Arad Romania,46.1767,21.2617,7200,6546,
RAE,OERR,Arar Saudi Arabia,30.9067,41.1381,10800,9999,SV
AQP,SPQU,Arequipa Peru,-16.3406,-71.5706,-18000,9776,
XAR,DFOY,Aribinda Burkina Faso,14.2269,-0.8872,0,2500,
WZA,FMMA,Arivonimamo Madagascar,-19.0289,47.1719,10800,2500,
ARH,ULAA,Arkhangelsk Russia,64.6003,40.7167,10800,8196,SUD
DIE,FMNA,Arrachart Madagascar,-12.3508,49.2942,10800,4968,
AUA,TNCA,Aruba Netherland Antilles,12.5011,-70.0142,-14400,9017,"DL,DVH,KLD,KL,NW,WSH"
AXR,NTGU,Arutua French Polynesia,-15.2464,-146.62,-39600,4265,
AJR,ESNX,Arvidsjaur Sweden,65.5903,19.2817,3600,8369,
AKJ,RJEC,Asahikawa Japan,43.6703,142.4469,32400,8211,MUD
ASI,FHAW,Ascension Island St Helena,-7.9692,-14.3933,0,10010,PAH
AVL,KAVL,Asheville NC,35.4358,-82.5417,-18000,8021,"DL,DVH"
ASB,UTAA,Ashgabat Turkmenistan,37.9914,58.3631,18000,12488,
ASM,HHAS,Asmara Eritrea,15.2842,38.9006,10800,9843,
ASE,KASE,Aspen CO,39.2231,-106.869,-25200,8010,"DL,DVH,NW"
TSE,UACC,Astana Kazakhstan,51.0219,71.4658,21600,11466,SUD
AST,KAST,Astoria OR,46.1575,-123.878,-28800,5796,RW
ASF,URWA,Astrakhan Russia,46.2828,48.0064,7200,8500,SUD
OVD,LEAS,Asturias Spain,43.5631,-6.0342,3600,7228,
ASU,SGAS,Asuncion Paraguay,-25.2403,-57.5164,-10800,11058,"AR,GLO"
ATR,GQPA,Atar Mauritania,20.5003,-13.0467,0,9868,
ATH,LGAV,Athens Greece,37.935,23.9439,7200,13141,"SUD,AF,AZ,DVH,KQD,KLD,KL,ME"
ATX,LGAT,Athens Hellenikon Greece,37.8936,23.7439,7200,2500,
ATV,FTTI,Ati Chad,13.2333,18.3167,3600,2500,
ATL,KATL,Atlanta GA,33.6403,-84.4267,-18000,11876,"AF,AS,DL,DVH,KL,KE,NA,NW,VS"
ACY,KACY,Atlantic City NJ,39.4575,-74.5767,-18000,9993,"DVH,NW"
AUQ,NAUQ,Atuona French Polynesia,-9.7689,-139.011,-39600,2500,
GUW,UATG,Atyrau Kazakhstan,47.1214,51.8208,18000,7736,
LEW,KLEW,Auburn/Lewiston ME,44.0483,-70.2833,-18000,5006,NEH
AKL,NZAA,Auckland New Zealand,-37.0081,174.7919,46800,12094,"MUD,PAH,VA"
AGS,KAGS,Augusta GA,33.37,-81.9645,-18000,8027,"DL,DVH"
AUG,KAUG,Augusta ME,44.3206,-69.7972,-18000,5008,NEH
AUR,LFLW,Aurillac France,44.8975,2.4167,3600,5574,
AUS,KAUS,Austin TX,30.1942,-97.6694,-21600,12297,"AMH,AS,DL,DVH,NW"
AVX,KAVX,Avalon CA,33.4047,-118.4156,-28800,3001,RW
AVB,LIPA,Aviano AB Italy,46.03,12.5975,3600,9819,
AVN,LFMV,Avignon France,43.9072,4.9017,3600,6188,
AYQ,YAYE,Ayers Rock Australia,-25.1856,130.975,34200,8548,"VA,VAH"
BCM,LRBC,Bacau Romania,46.5217,26.9103,7200,8160,
BGW,ORBI,Baghdad Iraq,33.2625,44.2339,10800,13140,"KLD,ME"
BPM,OAIX,Bagram AB Afghanistan,34.9456,69.2642,16200,9852,
BAH,OBBI,Bahrain International Bahrain,26.27,50.6331,10800,12982,"KLD,KL,PAH,SVD"
BHI,SAZB,Bahía Blanca Argentina,-38.7244,-62.1689,-10800,8625,AR
BAY,LRBM,Baia Mare Romania,47.6578,23.4656,7200,5900,ROH
NBS,ZYBS,Baishan China,42.0817,127.604,28800,2500,
BKE,KBKE,Baker City OR,44.8372,-117.809,-28800,5095,RW
BFL,KBFL,Bakersfield CA,35.4331,-119.057,-28800,10873,"RW,DVH"
GYD,UBBB,Baku Azerbaijan,40.4669,50.0464,14400,13146,SU
DPS,WADD,Bali Intl. Denpasar Bali Indonesia,-8.7467,115.169,28800,9964,"CI,KLD,KL,PAH,VA"
BPN,WALL,Balikpapan Sepinggan Indonesia,-1.2681,116.8939,28800,8208,KLD
BNK,YBNA,Ballina Australia,-28.8339,153.562,39600,6224,VA
BZY,LUBL,Balti Moldova,47.8381,27.7814,7200,7358,
BWI,KBWI,Baltimore MD,39.175,-76.6678,-18000,10489,"ASH,DL,DVH,NEH,NW,PAH"
BKO,GABS,Bamako Mali,12.5328,-7.9492,0,10522,AF
BBY,FEFM,Bambari Central African Republic,5.8469,20.6475,3600,2500,
BTJ,WITT,Banda Aceh Indonesia,5.5236,95.4203,25200,8241,
TKG,WIIT,Bandar Lampug Indonesia,-5.2422,105.18,25200,2500,
BWN,WBSB,Bandar Seri Begwan Brunei Darussalam,4.9442,114.9278,28800,12052,
BDO,WICC,Bandung Sastranegara Indonesia,-6.9017,107.576,25200,6491,KLD
HAL,VOBG,Bangalore-Hal India,12.9519,77.6644,0,10997,
BLR,VOBL,Bangalore-Kempegowda India,13.1853,77.7003,19800,13111,"AF,JAD,SV,SVD"
BGU,FEFG,Bangassou Central African Republic,4.7933,22.7961,3600,5906,
BPX,ZUBD,Bangda Qamdo Tibet China,30.5536,97.1083,28800,2500,
DMK,VTBD,Bangkok-Don Mueang Thailand,13.9139,100.605,25200,12185,"DVH,KLD,PAH"
BKK,VTBS,Bangkok-Suvarnabhumi Thailand,13.6803,100.7469,25200,13190,"SUD,AF,CID,MUD,DL,KL,KE,KEH,SV,VND,VN"
BGR,KBGR,Bangor ME,44.8069,-68.8281,-18000,11438,"DL,DVH,NEH"
BGF,FEFF,Bangui Central African Republic,4.3978,18.5178,3600,8570,AF
BDJ,WAOO,Banjarmarsin Indonesia,-3.4414,114.762,28800,8206,KLD
BJL,GBYD,Banjul Gambia,13.3419,-16.6578,0,11796,
BWX,WADY,Banyuwangi Indonesia,-8.31,114.34,25200,5894,
BSD,ZPBS,Baoshan China,25.1497,99.15,28800,2500,
BAV,ZBOW,Baotou China,40.5597,109.996,28800,9186,
BHB,KBHB,Bar Harbor ME,44.4497,-68.3617,-18000,5209,NEH
BCN,LEBL,Barcelona Spain,41.2964,2.0781,3600,11646,"SUD,UX,AF,AZ,DL,DVH,KLD,KL,PAH"
BDU,ENDU,Bardufoss Norway,69.0556,18.5403,3600,7991,
BRI,LIBD,Bari Italy,41.1381,16.7606,3600,9845,"AZ,AZD,HVD"
BAX,UNBB,Barnaul Russia,53.3631,83.5392,21600,9339,SUD
BRM,SVBM,Barquisimeto Venezuela,10.0456,-69.3564,-14400,10933,
BRR,EGPR,Barra United Kingdom,57.0233,-7.4417,0,4916,
BAQ,SKBQ,Barranquilla Colombia,10.8931,-74.7831,-18000,9895,"KLD,PAH"
BRW,PABR,Barrow AK,71.2853,-156.766,-32400,6893,DVH
BSL,LFSB,Basel Switzerland,47.5831,7.5331,3600,12817,"AF,KLD,KL"
BSR,ORMM,Basra Iraq,30.5489,47.6617,10800,13136,"KLD,ME"
SKB,TKPK,Basseterre St Kitts and Nevis,17.3089,-62.7181,-14400,7625,"DL,DVH,KLD,SBS"
BIA,LFKB,Bastia France,42.5539,9.4831,3600,8279,AF
BSG,FGBT,Bata Equatorial Guinea,1.9019,9.8028,0,6577,
---,WIKB,Batam Indonesia,10.1206,104.1186,25200,2500,
BTH,WIDD,Batam-Hang Nadim Indonesia,1.1203,104.1186,25200,13247,
BLJ,DABT,Batna Algeria,35.7592,6.32,3600,9316,
BTR,KBTR,Baton Rouge LA,30.5331,-91.1494,-21600,7383,"DL,DVH,NW"
OUR,FKKI,Batouri Cameroon,4.4669,14.3669,3600,6281,
BUW,WAWB,Bau Bau Indonesia,-5.4867,122.569,28800,5906,
BPT,KBPT,Beaumont TX,29.9508,-94.0206,-21600,6750,DVH
CBH,DAOR,Bechar Algeria,31.6458,-2.2783,3600,12245,
WBD,FMNF,Befandriana Madagascar,-15.2081,48.4858,10800,2500,
BHY,ZGBH,Beihai China,21.5392,109.2939,28800,2500,DVH
PEK,ZBAA,Beijing China,40.0781,116.5828,28800,12503,"SUD,AF,AZD,CID,MU,MUD,CZ,DL,DVH,KL,KEH,NW,VND,VN"
BEW,FQBR,Beira Mozambique,-19.7961,34.9075,7200,7857,
BEY,OLBA,Beirut Lebanon,33.8067,35.4867,7200,12545,"SUD,AF,KLD,ME,PAH,SV"
OVA,FMSL,Bekily Madagascar,-24.2333,45.3,10800,4199,
BEL,SBBE,Belem Brazil,-1.3842,-48.4789,-10800,9244,"GLO,PAH"
BFS,EGAA,Belfast-Aldergrove United Kingdom,54.6572,-6.2156,0,9133,VSD
BHD,EGAC,Belfast-City United Kingdom,54.6181,-5.8725,0,5995,
BEG,LYBE,Belgrade Serbia,44.8178,20.3089,3600,11144,"SUD,AZD,PAH"
BZE,MZBZ,Belize City Belize,17.5389,-88.3078,-21600,9703,"DL,DVH,NW"
BLI,KBLI,Bellingham WA,48.7917,-122.537,-28800,6760,"AS,DVH,NW"
CNF,SBCF,Belo Horizonte Brazil,-19.6244,-43.9717,-7200,9879,"AR,GLO"
BMD,FMML,Belo Madagascar,-19.6833,44.5333,10800,2500,
BJI,KBJI,Bemidji MN,47.5092,-94.9333,-21600,7015,"DL,NCA"
BEN,HLLB,Benghazi Libya,32.0967,20.27,7200,11823,KLD
BKS,WIPL,Bengkulu Indonesia,-3.8636,102.339,25200,2500,
BEH,KBEH,Benton Harbor MI,42.1283,-86.4247,-18000,5995,NCA
BBT,FEFT,Berbérati Central African Republic,4.2258,15.7856,3600,5474,
BGO,ENBR,Bergen Norway,60.2931,5.2181,0,9789,"KL,PAH"
EGC,LFBE,Bergerac France,44.8244,0.5206,3600,7224,
BVG,ENBV,Berlevåg Finnmark Norway,70.8714,29.0339,3600,3009,
BML,KBML,Berlin NH,44.5753,-71.1758,-18000,5209,NEH
BER,EDDX,Berlin-Brandenburg Germany,52.3781,13.5203,3600,2500,
SXF,EDDB,Berlin-Schönefeld Germany,52.3781,13.5203,3600,13093,"SUD,AF"
TXL,EDDT,Berlin-Tegel Germany,52.5581,13.2867,3600,9934,"AF,AZD,DVH,KL,PAH"
THF,EDDI,Berlin-Tempelhof Germany,52.4731,13.4014,3600,2500,
BRN,LSZB,Bern Switzerland,46.9106,7.4964,3600,5681,KLD
WBO,FMSB,Beroroha Madagascar,-21.6061,45.1333,10800,3117,
BPY,FMNQ,Besalampy Madagascar,-16.7533,44.4842,10800,4921,
BET,PABE,Bethel AK,60.7794,-161.838,-32400,6391,DVH
BZR,LFMU,Beziers France,43.3231,3.3531,3600,5961,VSD
BWA,VNBW,Bhairawa Nepal,27.5,83.4167,20700,4996,
BIK,WABB,Biak Indonesia,-1.19,136.107,32400,11729,KLD
BIQ,LFBZ,Biarritz France,43.4683,-1.5231,3600,7370,AF
37A,PABM,Big Mountain AK,59.3611,-155.259,-32400,4199,WAH
BIO,LEBB,Bilbao Spain,43.3006,-2.9106,3600,8544,"UX,AF,KL"
BIL,KBIL,Billings MT,45.8067,-108.5428,-25200,10898,"AS,ASH,DL,DVH,NPA,NW,WAH"
BLL,EKBI,Billund Denmark,55.7403,9.1517,3600,10152,"AF,KLD,KL"
BMU,WADB,Bima Indonesia,-8.5392,118.6867,28800,5421,
BGM,KBGM,Binghamton NY,42.2081,-75.9792,-18000,7583,"DL,DVH"
GHR,GQPT,Bir Moghrein Mauritania,25.2367,-11.5886,0,7475,
BDI,FSSB,Bird Island Seychelles,-3.7214,55.2086,14400,2500,
BHM,KBHM,Birmingham AL,33.5629,-86.7535,-21600,12027,"DL,DVH,NW"
BHX,EGBB,Birmingham United Kingdom,52.4531,-1.7478,0,9747,"AF,KL"
BHH,OEBH,Bisha Saudi Arabia,19.9842,42.6228,10800,10045,"SV,SVD"
BSK,DAUB,Biskra Algeria,34.8017,5.7417,3600,9469,
BIS,KBIS,Bismarck ND,46.7719,-100.7458,-21600,8791,"DL,NCA,NW"
OXB,GGOV,Bissau Guinea-Bissau,11.8883,-15.6556,0,10546,
BMM,FOOB,Bitam Gabon,2.0831,11.4831,3600,4921,
BCB,KBCB,Blacksburg VA,37.2075,-80.4075,-18000,4688,
BQS,UHBB,Blagoveshchensk Russia,50.4256,127.412,32400,9319,
BLZ,FWCL,Blantyre Malawi,-15.6794,34.9672,7200,7647,"KQD,KQ"
BFN,FABL,Bloemfontein South Africa,-29.0933,26.3036,7200,8443,
4K6,K4K6,Bloomfield IA,40.7322,-92.4283,-21600,3402,
BMI,KBMI,Bloomington IL,40.4778,-88.9156,-21600,8015,DL
BMG,KBMG,Bloomington IN,39.1456,-86.6167,-18000,6517,
BLH,KBLH,Blythe CA,33.6192,-114.717,-28800,6870,RW
BOY,DFOO,Bobo Dioulasso Burkina Faso,11.1675,-4.3208,0,10924,
BJV,LTFE,Bodrum Turkey,37.2506,27.6642,7200,9871,
BFI,KBFI,Boeing Field WA,47.5244,-122.303,-28800,10004,RW
XBG,DFEB,Bogande Burkina Faso,12.9925,-0.1728,0,2500,
BGH,GQNE,Boghe-Abbaye Mauritania,16.6386,-14.2028,0,3117,
BOG,SKBO,Bogota Colombia,4.7003,-74.1467,-18000,12503,"AM,DL,KLD"
BOI,KBOI,Boise ID,43.5642,-116.2228,-25200,9987,"RW,AS,ASH,DL,NW"
BKJ,GUOK,Boke Guinea,10.96,-14.3114,0,5102,
BLQ,LIPE,Bologna Italy,44.5342,11.2897,3600,9179,"SUD,AF,AZ,KL"
BON,TNCB,Bonaire Netherland Antilles,12.1303,-68.2681,-14400,10026,KL
OGR,FTTB,Bongor Chad,10.2881,15.3811,3600,5249,
TRW,NGTA,Bonriki Kiribati,1.3781,173.149,46800,6320,
BGB,FOGB,Booue Gabon,-0.1056,11.955,3600,3609,
BOB,NTTB,Bora Bora French Polynesia,-16.4431,-151.752,-39600,4944,
BOD,LFBD,Bordeaux France,44.8281,-0.7153,3600,10182,"AF,KL"
BOS,KBOS,Boston MA,42.3631,-71.0039,-18000,10087,"AF,AS,DL,DVH,KLD,NEH,NW,PAH,VS,WAH,WSH"
BYK,DIBK,Bouake Cote D'Ivoire,7.7525,-5.0678,0,10872,
BOP,FEFO,Bouar Central African Republic,5.9667,15.6333,3600,6234,
BOH,EGHH,Bournemouth United Kingdom,50.7797,-1.8422,0,7624,
OTL,GQNB,Boutilimit Mauritania,17.5389,-14.7231,0,2500,
BZN,KBZN,Bozeman MT,45.7767,-111.153,-25200,9008,"AS,DL,DVH,NW"
BRD,KBRD,Brainerd MN,46.3981,-94.1381,-21600,7162,"DL,NCA"
YBR,CYBR,Brandon Manitoba Canada,49.9097,-99.9522,-21600,6495,WSH
BKG,KBBG,Branson MO,36.5319,-93.2003,-21600,7152,
BSB,SBBR,Brasilia Brazil,-15.8625,-47.9119,-7200,10846,"AF,DL,GLO,PAH"
BTS,LZIB,Bratislava Slovakia,48.1697,17.2119,3600,10451,OK
BZV,FCBB,Brazzaville Congo,-4.2514,15.2528,3600,10871,"AF,KQD,KQ,KLD"
BRE,EDDW,Bremen Germany,53.0469,8.7867,3600,8334,"AF,KL"
VBS,LIPO,Brescia Italy,45.4289,10.3306,3600,9802,
BES,LFRB,Brest France,48.4478,-4.4183,3600,10165,AF
BGI,TBPB,Bridgetown Barbados,13.0728,-59.4867,-14400,11933,"DL,PAH,VSD"
BDS,LIBR,Brindisi Italy,40.6519,17.9469,3600,10012,AZ
BNE,YBBN,Brisbane Australia,-27.3842,153.1167,36000,11813,"CID,DVH,KLD,VA"
BRS,EGGD,Bristol United Kingdom,51.3819,-2.7189,0,6603,"KLD,KL,VSD"
TRI,KTRI,Bristol-Tri Cities TN/VA,36.4747,-82.4075,-18000,8008,"DL,DVH,NW"
BVE,LFBV,Brive-La-Gaillarde France,45.1494,1.4744,3600,2500,
BRQ,LKTB,Brno Czech Republic,49.1511,16.6942,3600,8680,
BKX,KBKX,Brookings SD,44.3042,-96.8189,-21600,5226,"NCA,WAH"
BME,YBRM,Broome Australia,-17.9492,122.228,28800,8064,VA
BRO,KBRO,Brownsville TX,25.9064,-97.4253,-21600,7410,"NW,PAH"
BQK,KBQK,Brunswick GA,31.2592,-81.4664,-18000,8000,"DL,DVH"
BRU,EBBR,Brussels Belgium,50.9017,4.4978,3600,11977,"SUD,AZ,OK,DL,DVH,KLD,KL,ME,NW,PAH"
BNN,ENBN,Brønnøysund Norway,65.4608,12.2172,3600,3924,
BGA,SKBG,Bucaramanga Colombia,7.1258,-73.1842,-18000,7445,
BBU,LRBS,Bucharest-Aurel Vlaicu Romania,44.5033,26.1033,7200,10468,
OTP,LROP,Bucharest-Henri Coanda Romania,44.5722,26.1031,7200,11462,"SUD,AF,AZ,OK,DVH,KL,PAH,ROH"
BUD,LHBP,Budapest Hungary,47.4367,19.2556,3600,12183,"SUD,AF,AZ,OK,DVH,KLD,KL"
EZE,SAEZ,Buenos Aires-Ezeiza Intl Argentina,-34.8219,-58.5281,-10800,10801,"AR,AM,AF,DL,DVH,KLD,KL,PAH"
AEP,SABE,Buenos Aires-Jorge Newbery Argentina,-34.5586,-58.4153,-10800,6876,AR
BUF,KBUF,Buffalo NY,42.9406,-78.7314,-18000,8667,"DL,DVH,NW"
BJM,HBBA,Bujumbura Burundi,-3.3178,29.3169,7200,11869,"KQD,KQ"
BHK,UTSB,Bukhara Uzbekistan,39.7747,64.4831,18000,9901,
BDB,YBUD,Bundaberg Australia,-24.9039,152.318,39600,5358,VA
BMV,VVBM,Buon Me Thuot Vietnam,12.6683,108.12,25200,9843,VN
BUR,KBUR,Burbank CA,34.2003,-118.359,-28800,6895,"RW,AS,DL,NW"
BOJ,LBBG,Burgas Bulgaria,42.5703,27.5153,7200,10509,
BYI,KBYI,Burley ID,42.5422,-113.771,-25200,4092,RW
BTV,KBTV,Burlington VT,44.4728,-73.1503,-18000,8317,"DL,DVH,NEH"
YDB,CYDB,Burwash Landing YT Canada,61.3706,-139.039,-28800,5103,WAH
BUZ,OIBB,Bushehr Iran,28.9492,50.83,12600,14678,
BTM,KBTM,Butte MT,45.9542,-112.4969,-25200,9009,"DL,NPA,NW"
BZG,EPBY,Bydgoszcz Poland,53.0967,17.9444,3600,8185,
BJF,ENBS,Båtsfjord Norway,70.6003,29.6922,3600,3270,
CAH,VVCM,Ca Mau Vietnam,9.1881,105.175,25200,4919,VN
CFR,LFRK,Caen France,49.1733,-0.45,3600,6243,
CAG,LIEE,Cagliari Italy,39.2514,9.0542,3600,9215,AZD
CNS,YBCS,Cairns Australia,-16.8856,145.755,36000,10530,VA
CAI,HECA,Cairo Egypt,30.1214,31.4056,7200,13150,"AF,DVH,KQD,KLD,KL,ME,SV"
CCU,VECC,Calcutta India,22.6542,88.4456,19800,11940,"JAD,KLD,PAH"
YYC,CYYC,Calgary AB Canada,51.1133,-114.019,-25200,14007,"AS,DL,DVH,KLD,KL,NW,WAH,WS,WSH"
CLO,SKCL,Cali Colombia,3.5431,-76.3814,-18000,9905,
CLY,LFKC,Calvi France,42.5306,8.7931,3600,7590,AF
CMW,MUCM,Camaguey Cuba,21.4203,-77.8475,-18000,9843,"KLD,PAH"
YCB,CYCB,Cambridge Bay Canada,69.1078,-105.137,-25200,5084,
CBG,EGSC,Cambridge United Kingdom,52.2047,0.175,0,6432,
CPE,MMCP,Campeche Mexico,19.8167,-90.5003,-21600,8263,AM
CPV,SBKG,Campina Grande Brazil,-7.27,-35.9464,-7200,5282,
CPQ,SDAM,Campinas Brazil,-22.8592,-47.1081,-7200,5276,
CGR,SBCG,Campo Grande Brazil,-20.4692,-54.6703,-14400,8548,"DVH,GLO"
CBR,YSCB,Canberra Australia,-35.3067,149.1939,37800,10801,VA
CUN,MMUN,Cancun Mexico,21.0361,-86.8761,-21600,11500,"AR,AM,AF,DL,DVH,NW,VSD,WSH"
XAN,ZGGX,Canton (Guangzhou Old) China,23.1831,113.267,28800,2500,MU
CIS,PCIS,Canton Island Kiribati,-2.77,-171.713,46800,6006,PAH
CGI,KCGI,Cape Girardeau MO,37.225,-89.5706,-21600,6492,NW
CPT,FACT,Cape Town South Africa,-33.9642,18.6017,7200,10532,"AF,DVH,KLD,KL,PAH"
CCS,SVMI,Caracas Venezuela,10.6031,-66.9903,-14400,11483,"AR,AM,AF,DL,DVH,KLD,PAH"
CSB,LRCS,Caransebes Romania,45.4203,22.2522,7200,2500,
CVL,SBCV,Caravelas Brazil,-17.6503,-39.2542,-7200,2500,PAH
CWL,EGFF,Cardiff United Kingdom,51.3967,-3.3428,0,7712,"KLD,KL"
CTG,SKCG,Cartagena Colombia,10.4425,-75.5131,-18000,8567,DVH
CAS,GMMC,Casablanca Anfa Morocco,33.5569,-7.6603,0,2500,
CMN,GMMN,Casablanca Morocco,33.3678,-7.5875,0,12282,"AF,KLD,PAH,SV,HVD"
CPR,KCPR,Casper WY,42.9081,-106.4639,-25200,10182,"DL,WAH"
CXI,PLCH,Cassidy Kiribati,1.9861,-157.35,-36000,6904,
DCM,LFCK,Castres France,43.5528,2.2906,3600,5993,
SLU,TLPC,Castries Saint Lucia,14.0222,-60.9992,-14400,6260,
CTC,SANC,Catamarca Argentina,-28.5931,-65.7511,-10800,9208,AR
CTA,LICC,Catania Italy,37.4667,15.0656,3600,8181,"AZ,HVD"
CAY,SOCA,Cayenne French Guiana,4.8189,-52.3603,-7200,10517,"AF,PAH"
CEB,RPVM,Cebu City Philippines,10.3069,123.979,28800,10894,
CDC,KCDC,Cedar City UT,37.7006,-113.099,-25200,8664,"RW,DL,DVH"
CID,KCID,Cedar Rapids IA,41.8842,-91.7106,-21600,8590,"DL,DVH,NW"
CMF,LFLB,Chambery France,45.6392,5.8794,3600,6630,
CMI,KCMI,Champaign-Urbana IL,40.0392,-88.2781,-21600,8104,"DVH,NW"
CGQ,ZYCC,Changchun China,43.9083,125.2083,28800,8535,"CZ,FM"
CSX,ZGHA,Changshua China,28.1967,113.2208,28800,8553,"MU,CZ,DVH"
CHQ,LGSA,Chania Greece,35.5308,24.1503,7200,10982,
CRL,EBCI,Charleroi Belgium,50.4597,4.4528,0,8383,
CHS,KCHS,Charleston SC,32.8983,-80.0403,-18000,9021,"DL,DVH,NW"
CRW,KCRW,Charleston WV,38.3731,-81.5931,-18000,6813,"DL,DVH,NW"
CTL,YBCV,Charleville Australia,-26.4125,146.263,36000,5006,KLD
CLT,KCLT,Charlotte NC,35.2139,-80.9431,-18000,10032,"DL,DVH,NW,PAH"
CHO,KCHO,Charlottesville VA,38.1381,-78.4528,-18000,6815,"DL,DVH,NW"
YYG,CYYG,Charlottetown PEI Canada,46.2897,-63.1208,-14400,7004,WS
CHA,KCHA,Chattanooga TN,35.0353,-85.2039,-18000,7421,"DL,DVH,NW"
CEK,USCC,Chelyabinsk Russia,55.3042,61.505,18000,10674,SU
CTU,ZUUU,Chengdu China,30.5781,103.9469,28800,11833,"MU,MUD,CZ,VN"
MAA,VOMM,Chennai India,12.9936,80.18,19800,12008,"DVH,JAD,SV"
CJJ,RKTU,Cheong Ju South Korea,36.7164,127.499,32400,9004,
CER,LFRC,Cherbourg France,49.6506,-1.4753,3600,7993,
NKT,KNKT,Cherry Point NC,34.9031,-76.8803,-18000,8999,
CTM,MMCM,Chetumal Quintana Roo Mexico,18.5047,-88.3269,-21600,8590,
CYS,KCYS,Cheyenne WY,41.1556,-104.81,-25200,9260,WAH
CNX,VTCC,Chiang Mai Thailand,18.7714,98.9625,25200,10104,"MUD,KE"
CEI,VTCT,Chiang Rai Thailand,19.9517,99.8831,25200,9874,
MDW,KMDW,Chicago-Midway IL,41.7856,-87.7514,-21600,6519,"DL,DVH,NW"
ORD,KORD,Chicago-O'Hare IL,41.9792,-87.9042,-21600,12996,"AM,AF,AS,ASH,DL,DVH,KL,KE,NCA,NEH,NW,PAH,WAH"
CIC,KCIC,Chico CA,39.795,-121.858,-28800,6725,RW
CUU,MMCU,Chihuahua Mexico,28.7028,-105.964,-25200,8557,"AM,NW"
HIN,RKPS,Chinju South Korea,35.0883,128.071,32400,9014,
JKH,LGHI,Chios Greece,38.3444,26.1408,7200,4924,
KIV,LUKK,Chisinau Moldova,46.9275,28.9303,7200,11784,ROH
CTS,RJCC,Chitose Japan,42.775,141.692,32400,9866,KE
COQ,ZMCD,Choibalsan Mongolia,48.1356,114.646,28800,8504,
CKG,ZUCK,Chongqing China,29.7167,106.6397,28800,12546,"MU,MUD,VN,MF"
CHC,NZCH,Christchurch New Zealand,-43.4892,172.534,46800,10791,VA
XCH,YPXM,Christmas Island Australia,-10.4506,105.69,25200,6940,VA
VCL,VVCA,Chu Lai Vietnam,15.4056,108.706,25200,10007,VN
YYQ,CYYQ,Churchill Canada,58.7386,-94.0658,-12600,9184,
CVG,KCVG,Cincinnati OH,39.0456,-84.6617,-18000,11984,"DL,DVH,NW"
CME,MMCE,Ciudad Del Carmen Mexico,18.6536,-91.7989,-21600,7231,AM
CJS,MMCS,Ciudad Juarez Mexico,31.6356,-106.429,-25200,8830,AM
CEN,MMCN,Ciudad Obregon Mexico,27.3919,-109.833,-25200,7578,AM
CVM,MMCV,Ciudad Victoria Mexico,23.7025,-98.9558,-21600,7201,
CKB,KCKB,Clarksburg WV,39.2967,-80.2281,-18000,7013,DVH
CKV,KCKV,Clarksville TN,36.6214,-87.4144,-21600,6009,NW
CWV,KCWV,Claxton-Evans County Airport Georgia,32.195,-81.8694,-18000,5000,
CFE,LFLC,Clermont France,45.7864,3.1692,3600,9885,AF
CLE,KCLE,Cleveland-Hopkins OH,41.4106,-81.8492,-18000,9955,"DL,DVH,NCA,NEH,NW"
CNJ,YCCY,Cloncurry Australia,-20.6683,140.504,36000,6571,"KLD,VA"
CLJ,LRCL,Cluj Romania,46.7847,23.6856,7200,6583,ROH
CIZ,SWKO,Coari Brazil,-4.1339,-63.1308,-14400,5258,PAH
CIJ,SLCO,Cobija Bolivia,-11.0406,-68.7831,-18000,6591,PAH
CBB,SLCB,Cochabamba Bolivia,-17.4206,-66.1767,-18000,12521,PAH
CCK,YPCC,Cocos Island Australia,-12.1881,96.8306,23400,8033,VA
COD,KCOD,Cody WY,44.5202,-109.024,-25200,8271,DL
CIV,FSSC,Coetivy Seychelles,-7.1411,56.2736,14400,2500,
CFS,YCFS,Coffs Harbour Australia,-30.3206,153.1158,39600,6825,VA
CJB,VOCB,Coimbatore India,11.0267,77.0417,19800,9837,
CDB,PACD,Cold Bay AK,55.2056,-162.724,-32400,10414,
CLQ,MMIA,Colima Mexico,19.2769,-103.577,-21600,7877,
CLL,KCLL,College Station TX,30.5881,-96.3631,-21600,7026,NW
CMB,VCBI,Colombo Sri Lanka,7.1792,79.885,19800,11205,KLD
COS,KCOS,Colorado Springs CO,38.8056,-104.7,-25200,13532,"DL,DVH,NW"
COU,KCOU,Columbia MO,38.8178,-92.2192,-21600,6514,NW
CAE,KCAE,Columbia SC,33.9383,-81.1192,-18000,8592,"DL,DVH,NW"
CSG,KCSG,Columbus GA,32.5164,-84.9389,-18000,6996,"DL,DVH,NW"
GTR,KGTR,Columbus MS,33.4503,-88.5914,-21600,8016,"DL,DVH,NW"
CMH,KCMH,Columbus OH,39.9981,-82.8917,-18000,10236,"DL,DVH,NW"
CIY,LICB,Comiso Italy,36.995,14.6075,3600,8325,
CRD,SAVC,Comodoro Rivadavia Argentina,-45.7853,-67.4656,-10800,9427,AR
YQQ,CYQQ,Comox BC Canada,49.7106,-124.8858,-28800,9995,WSH
VCS,VVCS,Con Son Island Vietnam,8.7319,106.632,25200,6004,VN
CKY,GUCY,Conakry Guinea,9.5775,-13.6117,0,10825,"AF,KLD"
CCR,KCCR,Concord CA,37.9894,-122.056,-28800,5010,NW
JQF,KJQF,Concord NC,35.3875,-80.7083,-18000,7424,DVH
CON,KCON,Concord NH,43.2028,-71.5022,-18000,6015,NEH
CND,LRCK,Constanta Romania,44.3619,28.4881,7200,11514,
CZL,DABC,Constantine Algeria,36.2853,6.6192,3600,9864,SV
OOL,YBCG,Coolangatta/Gold Coast Australia,-28.1642,153.504,39600,8195,VA
CPH,EKCH,Copenhagen Denmark,55.6178,12.6556,3600,11857,"SUD,AF,DVH,KQD,KL,ME,PAH"
CDV,PACV,Cordova AK,60.4917,-145.477,-32400,7513,"DVH,WAH"
CFU,LGKR,Corfu Greece,39.6014,19.9117,7200,7796,
ORK,EICK,Cork Ireland,51.8408,-8.4906,0,6997,
SZC,SAZC,Coronel Suarez Argentina,-37.4458,-61.8892,-10800,4265,AR
CRP,KCRP,Corpus Christi TX,27.7703,-97.55,-21600,7522,"DVH,NW"
CNQ,SARC,Corrientes Argentina,-27.4456,-58.7617,-10800,6914,AR
CVO,KCVO,Corvallis OR,44.4964,-123.289,-28800,6005,RW
COO,DBBB,Cotonou Benin,6.3564,2.3842,3600,7893,"AF,PAH"
CVF,LFLJ,Courchevel France,45.3956,6.6325,3600,1765,
CZM,MMCZ,Cozumel Mexico,20.5217,-86.925,-21600,10253,"DL,DVH,NW"
CRA,LRCV,Craiova Romania,44.3181,23.8883,7200,8150,
YXC,CYXC,Cranbrook BC Canada,49.6119,-115.782,-28800,8790,
CEC,KCEC,Crescent City CA,41.7797,-124.236,-28800,5011,RW
CRV,LIBC,Crotone Italy,38.9967,17.0792,3600,6577,
CGB,SBCY,Cuiaba Brazil,-15.6494,-56.1167,-14400,7598,GLO
CUL,MMCL,Culiacan Mexico,24.7639,-107.474,-25200,7529,"AM,DVH"
CUR,TNCC,Curacao Netherlands Antilles,12.1881,-68.9592,-14400,11340,"DVH,KLD,KL,PAH"
CWB,SBCT,Curitiba Brazil,-25.5314,-49.1756,-7200,7342,"AR,GLO,PAH"
CTB,KCTB,Cut Bank MT,48.6083,-112.3761,-25200,5309,WAH
VCA,VVCT,Cân Th? Vietnam,10.085,105.7119,25200,6003,VN
COR,SACO,Córdoba Argentina,-31.3233,-64.2078,-10800,10525,AR
DLI,VVDL,Da Lat Vietnam,11.7528,108.361,25200,10663,VN
TKE,RKTN,Daegu South Korea,35.8939,128.659,32400,9032,
DSS,GOBD,Dakar-Blaise Diagne Senegal,14.67,-17.0728,0,11483,DVH
DKR,GOOY,Dakar-Léopold Sédar Senghor Senegal,14.7389,-17.4889,0,11510,"AF,DL,DVH,PAH"
VIL,GMMH,Dakhla Western Sahara,23.7181,-15.9317,0,9874,
DLM,LTBS,Dalaman Turkey,36.7125,28.7081,7200,9859,
DLU,ZPDL,Dali City China,25.6508,100.318,28800,2500,
DLC,ZYTL,Dalian China,38.9656,121.538,28800,10813,"MU,CZ"
DFW,KDFW,Dallas-Fort Worth TX,32.8956,-97.0367,-21600,13447,"AM,AS,ASH,DL,DVH,KE,NW,PAH,WSH"
DAL,KDAL,Dallas-Love Field TX,32.8467,-96.8517,-21600,8812,"DL,DVH,NW,PAH,WAH"
DJO,DIDL,Daloa Cote D'Ivoire,6.7928,-6.4731,0,2500,
DAM,OSDI,Damascus Syria,33.4108,36.5156,7200,11674,KLD
DMM,OEDF,Dammam Saudi Arabia,26.4706,49.7978,10800,13165,"KL,ME,SV"
DDG,ZYDD,Dandong China,40.0228,124.287,28800,2500,
DAN,KDAN,Danville VA,36.5722,-79.3361,-18000,6506,
DQA,ZYDQ,Daqing China,46.7508,125.139,28800,2500,
DAR,HTDA,Dar es Salaam Tanzania,-6.8781,39.2017,10800,10009,"KQD,KQ,KLD,KL,PAH"
DAI,FSDA,Darros Island Seychelles,-5.4194,53.2969,14400,2500,
DRW,YPDN,Darwin Australia,-12.4139,130.8769,34200,11008,"KLD,VA"
DAT,ZBDT,Datong China,40.06,113.4819,28800,9882,
DAY,KDAY,Dayton OH,39.9017,-84.2192,-18000,10897,"DL,DVH,NW"
DAB,KDAB,Daytona Beach FL,29.1794,-81.0575,-18000,10507,"DL,DVH,NA,NW,PAH"
SCC,PASC,Deadhorse AK,70.1942,-148.465,-32400,6511,DVH
DOL,LFRG,Deauville France,49.3631,0.1594,3600,8357,
DGU,DFOD,Dedougou Burkina Faso,12.4664,-3.4975,0,8202,
YDF,CYDF,Deer Lake NF Canada,49.2108,-57.3911,-12600,7995,"WS,WSH"
DED,KDED,Deland FL,29.0669,-81.2836,-18000,6001,
DEL,VIDP,Delhi-Indira Gandhi India,28.5664,77.1031,19800,13734,"SUD,AF,DVH,JAD,KLD,KL,PAH,SV,VSD"
BIG,PABI,Delta Junction AK,63.9944,-145.721,-32400,8671,WAH
DTA,KDTA,Delta UT,39.3833,-112.502,-25200,6078,DVH
DEI,FSSD,Denis Island Seychelles,-3.8003,55.6644,14400,2500,
DEN,KDEN,Denver CO,39.8581,-104.667,-25200,16035,"AM,AS,DL,DVH,NCA,NW,WAH"
DSM,KDSM,Des Moines IA,41.5342,-93.6603,-21600,9692,"DL,DVH,NW"
DES,FSDR,Desroches Seychelles,-5.6947,53.6506,14400,2500,
DTW,KDTW,Detroit-Wayne County MI,42.2117,-83.3481,-18000,12017,"AF,DL,DVH,NCA,NEH,NW"
DVL,KDVL,Devils Lake ND,48.1142,-98.9081,-21600,6395,"NCA,NW"
DPO,YDPO,Devonport Australia,-41.1694,146.4303,39600,6023,VAH
DHA,OEDR,Dhahran International Airport,26.2639,50.1517,10800,12042,"KLD,PAH"
DAC,VGHS,Dhaka Bangladesh,23.8431,90.3978,21600,10491,
DIK,KDIK,Dickinson ND,46.7969,-102.802,-25200,6401,DL
XDE,DFOU,Diebougou Burkina Faso,10.9589,-3.255,0,2500,
NKW,FJDG,Diego Garcia,-7.2994,72.4,21600,12029,
DIL,WPDL,Dili Timor-Leste,-8.5461,125.524,32400,6228,
DLG,PADL,Dillingham AK,59.0444,-158.505,-32400,6385,WAH
DNR,LFRD,Dinard France,48.5878,-2.0797,3600,7213,
DJM,FCBD,Djambala Congo,-2.5333,14.75,3600,2500,
DJJ,WAJJ,Djayapura Indonesia,-2.5767,140.516,32400,7164,
DJE,DTTJ,Djerba Tunisia,33.875,10.7753,3600,10198,"HV,HVD"
XDJ,DFCJ,Djibo Burkina Faso,14.1106,-1.6397,0,2500,
JIB,HDAM,Djibouti City Djibouti,11.5469,43.1592,10800,10299,"AF,KQD,KQ"
DNK,UKDD,Dnepropetrovsk Ukraine,48.3572,35.1006,7200,9302,
MGE,KMGE,Dobbins ARB Marietta GA,33.9153,-84.5161,-18000,10016,
DOH,OTHH,Doha-Hamad Qatar,25.2792,51.6131,10800,15912,"KLD,KL,ME,SV"
DLE,LFGJ,Dole France,47.0428,5.4347,3600,7308,
DIS,FCPD,Dolisie Congo,-4.2167,12.6667,3600,5906,
DSA,EGCN,Doncaster United Kingdom,53.4747,-1.0044,0,9485,KLD
DOK,UKCC,Donetsk Ukraine,48.0736,37.7397,7200,2500,
DOR,DFEE,Dori Burkina Faso,14.0333,-0.0667,0,2500,
DHN,KDHN,Dothan AL,31.3211,-85.4494,-21600,8510,"DL,NW"
DLA,FKKD,Douala Cameroon,4.0056,9.7192,3600,9367,AF
DOV,KDOV,Dover-Dover AFB DE,39.1286,-75.4658,-18000,12897,
DRS,EDDC,Dresden Germany,51.1328,13.7667,3600,9346,SUD
DXB,OMDB,Dubai United Arab Emirates,25.2542,55.3633,14400,14464,"SUD,AF,DL,DVH,KQD,KQ,KLD,KL,ME,SV,VA,VSD"
DWC,OMDW,Dubai-Al Maktoum United ArabEmirates,24.8861,55.1722,14400,14776,
DBO,YSDU,Dubbo Australia,-32.2167,148.575,39600,5607,
DUB,EIDW,Dublin Ireland,53.42,-6.2689,0,8632,"AF,DL,DVH,WSH"
DBV,LDDU,Dubrovnik Croatia,42.5608,18.2681,3600,10812,
DBQ,KDBQ,Dubuque IA,42.4017,-90.7092,-21600,6502,NW
DLH,KDLH,Duluth MN,46.8417,-92.1931,-21600,10437,"DL,NCA,NW"
DND,EGPN,Dundee United Kingdom,56.4522,-3.0256,0,4582,
DUD,NZDN,Dunedin New Zealand,-45.9281,170.198,46800,6295,VA
DRO,KDRO,Durango CO,37.1514,-107.754,-25200,9209,DVH
DGO,MMDO,Durango Mexico,24.1242,-104.528,-21600,9878,AM
DUR,FALE,Durban South Africa,-29.6114,31.1192,7200,12166,
DUX,FADX,Durban-Delta 200 South Africa,-29.9692,30.95,7200,2500,
DYU,UTDD,Dushambe Tajikistan,38.5431,68.825,18000,10357,
DUS,EDDL,Dusseldorf Germany,51.2883,6.7667,3600,9830,"SUD,AF,OK,DL,KLD,KL,NW,PAH"
DUT,PADU,Dutch Harbor AK,53.9,-166.543,-32400,4146,
DZA,FMCZ,Dzaoudzi Comoros,-12.8064,45.2806,10800,6370,"KQD,KQ"
DMS,LSMD,Dübendorf Switzerland,47.3986,8.6483,3600,8736,KLD
SYA,PASY,Eareckson Air Station AK,52.7119,174.1139,-36000,10027,NW
ELS,FAEL,East London South Africa,-33.0356,27.8258,7200,6443,
IPC,SCIP,Easter Island Chile,-27.1644,-109.422,-18000,10845,
EAU,KEAU,Eau Claire WI,44.8656,-91.4842,-21600,8119,"NCA,NW"
EDI,EGPH,Edinburgh United Kingdom,55.95,-3.3719,0,8384,"AF,DVH,KL,VS"
YEG,CYEG,Edmonton AB Canada,53.3086,-113.58,-25200,10995,"AS,DL,DVH,NW,WAH,WS,WSH"
EDW,KEDW,Edwards AFB CA,34.9081,-117.884,-28800,39232,
EIL,PAEI,Eielson AFB AK,64.6656,-147.101,-32400,14481,
EIN,EHEH,Eindhoven Netherlands,51.45,5.3742,3600,9834,KLD
SVX,USSS,Ekaterinburg Russia,56.7431,60.8042,18000,10766,SU
GEN,HL0L,El Adem Libya,31.8608,23.9011,7200,2500,
FTE,SAWC,El Calafate Argentina,-50.2803,-72.0531,-10800,8409,AR
NJK,KNJK,El Centro CA,32.8264,-115.6683,-28800,9494,
ELF,HSFS,El Fasher Sudan,13.6147,25.3244,10800,9807,
ELG,DAUE,El Golea Algeria,30.5689,2.8644,3600,11303,
ELU,DAUO,El Oued Algeria,33.5128,6.7822,3600,9868,
ELP,KELP,El Paso TX,31.8067,-106.378,-25200,12029,"DL,DVH,NW,WAH"
EKO,KEKO,Elko NV,40.825,-115.792,-28800,7467,"DL,DVH"
EDF,PAED,Elmendorf AFB AK,61.2506,-149.806,-32400,9974,
ELM,KELM,Elmira/Corning NY,42.1597,-76.8914,-18000,7937,"DL,DVH"
ELY,KELY,Ely NV,39.2992,-114.836,-28800,6021,DVH
EMD,YEML,Emerald Australia,-23.5672,148.179,39600,6234,VA
ENE,WATE,Ende Indonesia,-8.8492,121.66,28800,4560,
ENH,ZHES,Enshi China,30.3203,109.485,28800,2500,
EBB,HUEN,Entebbe Uganda,0.0417,32.4428,10800,12017,"KQD,KQ,KL"
EPH,KEPH,Ephrata WA,47.3081,-119.517,-28800,6692,RW
EBL,ORER,Erbil Iraq,36.2381,43.9628,10800,15748,
ERF,EDDE,Erfurt Germany,50.9797,10.9581,3600,8514,
ERI,KERI,Erie PA,42.0817,-80.1756,-18000,8434,"DL,DVH,NW"
ERH,GMFK,Errachidia Morocco,31.9481,-4.4006,0,10498,
ESC,KESC,Escanaba MI,45.7219,-87.0931,-21600,6490,"DL,NCA,NW"
IFN,OIFM,Esfahan Iran,32.7506,51.8628,12600,14421,
EQS,SAVE,Esquel Argentina,-42.9081,-71.1394,-10800,7874,AR
ESU,GMMI,Essaouira Morocco,31.4097,-9.6939,0,8494,
ESS,EDLE,Essen-Mulheim Germany,51.4019,6.9369,3600,5179,KLD
EUG,KEUG,Eugene OR,44.1228,-123.219,-28800,8023,"RW,AS,DL,NW"
ACV,KACV,Eureka CA,40.9778,-124.109,-28800,6009,RW
EVV,KEVV,Evansville IN,38.0381,-87.5306,-21600,8022,"DL,DVH"
PAE,KPAE,Everett WA,47.9069,-122.282,-28800,9418,
EXT,EGTE,Exeter United Kingdom,50.7344,-3.4139,0,6821,
FGD,GQPF,F'Derik Mauritania,22.6664,-12.7333,0,2500,
FNG,DFEF,Fada-N'gourma Burkina Faso,12.0381,0.3558,0,3937,
FAI,PAFA,Fairbanks-Intl AK,64.8131,-147.859,-32400,11769,"AS,DVH,NW,PAH,WAH"
CQF,KCQF,Fairhope AL,30.4603,-87.8769,-21600,6604,
FRM,KFRM,Fairmont MN,43.6439,-94.4156,-21600,5500,NCA
FAV,NTGF,Fakarava French Polynesia,-16.0542,-145.657,-39600,4593,
RVA,FMSG,Farafangana Madagascar,-22.8053,47.8206,10800,2500,
FAR,KFAR,Fargo ND,46.9203,-96.8156,-21600,9542,"DL,NCA,NW"
FAB,EGLF,Farnborough United Kingdom,51.2758,-0.7764,0,8007,
FAO,LPFR,Faro Portugal,37.0089,-7.9656,0,8166,HVD
FYT,FTTY,Faya-Largeau Chad,17.9158,19.1089,3600,7555,
XNA,KXNA,Fayetteville AR,36.2817,-94.3067,-21600,8822,"DL,DVH,NW"
FAY,KFAY,Fayetteville NC,34.9914,-78.8797,-18000,7718,DL
FYV,KFYV,Fayetteville-Drake AR,36.005,-94.1694,-21600,6013,NW
FHB,KFHB,Fernandina Beach FL,30.6114,-81.4608,-18000,5310,DVH
FEZ,GMFF,Fez Morocco,33.9256,-4.9789,0,10491,
WFI,FMSF,Fianarantsoa Madagascar,-21.4539,47.0947,10800,4101,
FSC,LFKF,Figari France,41.5006,9.0978,3600,8132,
FIT,KFIT,Fitchburg MA,42.5539,-71.7589,-18000,4655,NEH
FLG,KFLG,Flagstaff AZ,35.1381,-111.671,-25200,8796,DVH
FNT,KFNT,Flint MI,42.9653,-83.7431,-18000,7863,"DL,DVH,NCA,NW"
FLR,LIRQ,Florence Italy,43.8092,11.2047,3600,5629,"AF,AZ,KL"
FLO,KFLO,Florence SC,34.1853,-79.7239,-18000,6492,DVH
FLN,SBFL,Florianopolis Brazil,-27.6703,-48.5525,-7200,7558,"GLO,PAH"
FRO,ENFL,Florø Sogn og Fjordane Norway,61.5833,5.0244,3600,3924,
FOG,LIBF,Foggia Italy,41.4333,15.5356,3600,5253,
FBA,SWOB,Fonte Boa Brazil,-2.5331,-66.0672,-14400,4167,PAH
FMA,SARF,Formosa Argentina,-26.2128,-58.2278,-10800,5918,AR
FOD,KFOD,Fort Dodge IA,42.5514,-94.1922,-21600,6539,NW
FLL,KFLL,Fort Lauderdale FL,26.0725,-80.1522,-18000,8994,"DL,DVH,NA,NW,WS,WSH"
YMM,CYMM,Fort McMurray AB Canada,56.6531,-111.222,-21600,7515,WS
RSW,KRSW,Fort Myers FL,26.5353,-81.7539,-18000,12012,"DL,DVH,NA,NW,PAH,WSH"
YYE,CYYE,Fort Nelson BC Canada,58.8361,-122.597,-28800,6412,WAH
YFS,CYFS,Fort Simpson NT,61.76,-121.236,-25200,5987,WAH
FSM,KFSM,Fort Smith AR,35.3364,-94.3669,-21600,8030,"DL,DVH,NW"
YXJ,CYXJ,Fort St. John BC Canada,56.2381,-120.74,-28800,6901,"WAH,WSH"
FWA,KFWA,Fort Wayne IN,40.9785,-85.1951,-18000,12004,"DL,DVH"
GSW,KGSW,Fort Worth TX Greater Southwest Intl,32.8331,-97.05,-21600,2500,
FTW,KFTW,Fort Worth-Meacham TX,32.8194,-97.3625,-21600,7528,DVH
FDF,TFFF,Fort de France Martinique,14.59,-61.0031,-14400,9859,"AF,DVH,PAH,SBS"
FOR,SBFZ,Fortaleza Brazil,-3.7756,-38.5311,-10800,8363,"DVH,GLO"
FUT,NLWF,Fortuna Island,-14.3114,-178.066,46800,3733,
FOU,FOGF,Fougamou Gabon,-1.2939,10.6269,3600,4921,
FOM,FKKM,Foumban Cameroon,5.6369,10.7508,3600,6908,
MVB,FOON,Franceville Gabon,-1.6514,13.4342,3600,10137,
FFT,KFFT,Frankfort KY,38.1819,-84.9061,-18000,5515,DVH
FRA,EDDF,Frankfurt Germany,50.0264,8.5428,3600,13123,"SUD,AF,AZ,OK,DL,DVH,KQD,KLD,KL,ME,NW,PAH,SV,VN"
FDK,KFDK,Frederick MD,39.4175,-77.3742,-18000,5222,
YFC,CYFC,Fredericton NB Canada,45.8692,-66.5317,-14400,8000,"DVH,WSH"
FPO,MYGF,Freeport Bahamas,26.5583,-78.6953,-18000,11025,DL
FNA,GFLL,Freetown Sierra Leone,8.6164,-13.1956,0,10502,KLD
FAT,KFAT,Fresno CA,36.7756,-119.718,-28800,9538,"AM,RW,AS,DL,DVH"
FRK,FSSF,Frégate Island Seychelles,-4.5839,55.9461,14400,2500,
VPS,KVPS,Ft Walton Beach FL,30.4831,-86.5253,-21600,12007,"DL,DVH,NW"
FUK,RJFF,Fukuoka Japan,33.5861,130.45,32400,9213,"DL,DVH,KL,KE,VN"
FKS,RJSF,Fukushima Japan,37.2275,140.4306,32400,8223,
FUN,NGFU,Funafuti Tuvalu,-8.5239,179.197,50400,5052,
FOC,ZSFZ,Fuzhou China,25.9333,119.662,28800,11838,MU
FDE,ENBL,Førde Norway,61.3908,5.7567,3600,3071,
GBE,FBSK,Gaborone Botswana,-24.555,25.9181,7200,13088,
GNV,KGNV,Gainesville FL,29.69,-82.2717,-18000,7499,"DL,DVH"
GAL,PAGA,Galena AK,64.7361,-156.937,-32400,7235,WAH
GAN,VRMG,Gan Maldives,-0.6933,73.1556,18000,11272,
YQX,CYQX,Gander NF Canada,48.9375,-54.5678,-12600,10492,"NEH,PAH,WSH"
GAQ,GAGO,Gao Mali,16.2481,-0.0056,0,8223,
XGA,DFOG,Gaoua Burkina Faso,10.3881,-3.1792,0,2500,
GOU,FKKR,Garoua Cameroon,9.3367,13.3806,3600,11358,
ELQ,OEGS,Gassim Saudi Arabia,26.3028,43.7742,10800,9853,SV
GDN,EPGD,Gdansk Poland,54.3772,18.4658,3600,9163,
GDZ,URKG,Gelendzhik Russia,44.5814,38.0128,7200,10194,
GVA,LSGG,Geneva Switzerland,46.2381,6.1089,3600,12805,"SUD,AF,KL,ME,PAH,SV"
GOA,LIMJ,Genoa Italy,44.4117,8.8417,3600,9583,"AF,AZ"
GRJ,FAGG,George South Africa,-34.0053,22.3789,7200,6947,
GGT,MYEF,Georgetown Bahamas,23.5625,-75.8778,-18000,7055,DL
GEO,SYCJ,Georgetown Guyana,6.5,-58.25,-10800,7466,"DVH,KLD,PAH"
GET,YGEL,Geraldton Australia,-28.7958,114.707,28800,6515,VA
GHA,DAUG,Ghardaia Algeria,32.3817,3.7992,3600,10164,
DIN,VVDB,Gia Lam Vietnam,21.3975,103.008,25200,6004,"VND,VN"
GIB,LXGB,Gibraltar - United Kingdom,36.1506,-5.3492,3600,6555,DVH
GCC,KGCC,Gillette WY,44.3489,-105.539,-25200,7526,DL
GRO,LEGE,Girona Spain,41.9008,2.7606,3600,7893,HVD
GIZ,OEGN,Gizan Saudi Arabia,16.9006,42.5856,10800,10037,SV
YHK,CYHK,Gjoa Haven NT,68.6353,-95.8494,-25200,4389,
GLT,YGLA,Gladstone Australia,-23.8694,151.223,39600,6103,VA
GGW,KGGW,Glasgow MT,48.2122,-106.615,-25200,6354,NW
GLA,EGPF,Glasgow United Kingdom,55.8714,-4.4328,0,8727,"KL,NW,PAH,WSH"
PIK,EGPK,Glasgow-Prestwick United Kingdom,55.5092,-4.5864,0,9830,"AF,KLD,NEH,NW,PAH"
GDV,KGDV,Glendive MT,47.1386,-104.8069,-25200,5700,
GOI,VOGO,Goa India,15.3806,73.8314,19800,11240,JAD
GYN,SBGO,Goiania Brazil,-16.6292,-49.2267,-7200,8216,GLO
YYR,CYYR,Goose Bay NF Canada,53.3206,-60.4317,-14400,11062,NEH
XGG,DFEG,Gorom-Gorom Burkina Faso,14.4531,-0.2408,0,2500,
GTO,WAMG,Gorontalo Indoesnia,0.6381,122.852,28800,5410,KLD
GOT,ESGG,Gothenburg Sweden,57.6628,12.2792,3600,10812,"AF,KLD,KL"
GUD,GAGM,Goundam Mali,16.35,-3.6,0,4931,
GRX,LEGR,Granada Spain,37.1883,-3.7769,3600,9502,
GCN,KGCN,Grand Canyon AZ,35.9522,-112.147,-25200,9014,RW
SFG,TFFG,Grand Case St-Martin Guadeloupe,18.1,-63.0489,-14400,3937,
GCM,MWCR,Grand Cayman Cayman Islands,19.2928,-81.3567,-18000,7421,"DL,DVH,NW,WSH"
RDR,KRDR,Grand Forks AFB,47.9611,-97.4008,-21600,12364,
GFK,KGFK,Grand Forks ND,47.9492,-97.1756,-21600,7356,"DL,NCA,NW"
GJT,KGJT,Grand Junction CO,39.1225,-108.527,-25200,10518,DL
GRR,KGRR,Grand Rapids MI,42.8806,-85.5228,-18000,9984,"DL,DVH,NCA,NW"
YQU,CYQU,Grande Prairie AB Canada,55.1789,-118.885,-25200,8514,"WAH,WSH"
GRZ,LOWG,Graz Austria,46.9931,15.4392,0,9859,DVH
GTF,KGTF,Great Falls MT,47.4806,-111.3708,-25200,10519,"RW,AS,DL,NPA,NW,WAH"
GRB,KGRB,Green Bay WI,44.485,-88.1292,-21600,8714,"DL,DVH,NCA,NW"
GSO,KGSO,Greensboro NC,36.0977,-79.9373,-18000,10009,"DL,DVH,NW"
GLH,KGLH,Greenville MS,33.4828,-90.9856,-21600,8029,NW
PGV,KPGV,Greenville NC,35.635,-77.3853,-18000,6520,DVH
GMU,KGMU,Greenville SC,34.8478,-82.3497,-18000,5410,DVH
GSP,KGSP,Greenville SC,34.8956,-82.2186,-18000,11022,"DL,DVH,NW"
GWO,KGWO,Greenwood MS,33.4942,-90.0847,-21600,6526,DVH
GNB,LFLS,Grenoble France,45.3631,5.3328,3600,9989,
GRQ,EHGG,Groningen Netherlands,53.1197,6.5794,3600,8186,KLD
GON,KGON,Groton-New London CT,41.33,-72.0444,-18000,5006,"NEH,PAH"
GDL,MMGL,Guadalajara Mexico,20.5217,-103.3108,-21600,13135,"AM,AMH,DL"
GUM,PGUM,Guam International Guam,13.4836,144.797,36000,12035,"DL,NW,PAH"
CAN,ZGGG,Guangzhou-Baiyun China,23.3906,113.299,28800,12619,"SUD,AF,CZ,DVH,SV,FM,VN"
NBW,MUGM,Guantanamo NAS Cuba,19.9064,-75.2067,-18000,8022,
GUA,MGGT,Guatemala City Guatemala,14.5828,-90.5264,-21600,9848,"AM,DL,DVH,NW,PAH"
GYE,SEGU,Guayaquil Ecuador,-2.1578,-79.8831,-18000,9188,"DVH,KLD,KL,PAH"
GYA,SLGY,Guayaramerín Bolivia,-10.8217,-65.3458,-18000,2500,PAH
GYM,MMGM,Guaymas Mexico,27.9689,-110.925,-21600,7730,
GCI,EGJB,Guernsey United Kingdom,49.435,-2.6019,0,4788,KLD
KWL,ZGKL,Guilin China,25.2181,110.039,28800,10546,"CZ,FM"
KWE,ZUGY,Guiyang China,26.5339,106.801,28800,10499,CZ
JKA,KJKA,Gulf Shores AL,30.2894,-87.6717,-21600,6957,
GPT,KGPT,Gulfport/Biloxi MS,30.4069,-89.0697,-21600,9015,"DL,DVH,NW"
GKN,PAGK,Gulkana AK,62.1547,-145.454,-32400,4986,
GUC,KGUC,Gunnison CO,38.5339,-106.9325,-25200,9386,ASH
KUV,RKJK,Gunsan South Korea,35.9036,126.616,32400,9022,
GNS,WIMB,Gunungsitoli Indonesia,1.1664,97.7044,25200,7382,
URY,OEGT,Guriat Saudi Arabia,31.4117,37.2792,10800,9999,
GST,PAGS,Gustavus AK,58.425,-135.707,-32400,6710,
KWJ,RKJJ,Gwangju South Korea,35.1264,126.809,32400,9313,
HET,ZBHH,Habbot China,40.8481,111.8231,28800,11830,
HPH,VVCI,Hai Phong Vietnam,20.8189,106.725,25200,10007,VN
HFA,LLHA,Haifa Israel,32.8092,35.0431,7200,3957,
HAK,ZJHK,Haikou China,19.9344,110.4589,28800,11814,"MUD,CZ"
HAS,OEHL,Hail Saudi Arabia,27.4381,41.6864,10800,10865,SV
MDG,ZYMD,Hailang China,44.5231,129.5669,28800,8527,CZH
HKD,RJCH,Hakodate Japan,41.77,140.822,32400,9821,
YHZ,CYHZ,Halifax NS Canada,44.8803,-63.5081,-14400,10518,"DL,DVH,KLD,WS,WSH"
HAD,ESMT,Halmstad Sweden,56.6906,12.82,3600,7518,
HAM,EDDH,Hamburg Germany,53.6303,9.9967,3600,12021,"SUD,AF,DVH,KL"
BDA,TXKF,Hamilton Bermuda,32.3639,-64.6781,-14400,9708,"DL,DVH,PAH,WSH"
HTI,YBHM,Hamilton Island Australia,-20.3578,148.951,39600,5997,VA
HLZ,NZHN,Hamilton New Zealand,-37.8664,175.335,46800,7270,
YHM,CYHM,Hamilton ON Canada,43.1736,-79.935,-18000,9993,WSH
HFT,ENHF,Hammerfest Norway,70.6794,23.6683,3600,2887,
HNA,RJSI,Hanamaki Japan,39.4283,141.135,32400,8220,
CMX,KCMX,Hancock MI,47.1681,-88.4889,-18000,6492,"NCA,NW"
HGH,ZSHC,Hangzhou China,30.2281,120.432,28800,11835,"MU,CZ,KL"
HAJ,EDDV,Hannover Germany,52.4606,9.685,3600,12444,"SUD,AF,KLD,KL,PAH"
HAN,VVNB,Hanoi Viet Nam,21.2206,105.807,25200,10500,"SUD,CI,KE,VND,VN"
BED,KBED,Hanscom AFB MA,42.4697,-71.2889,-18000,6990,
HOI,NTTO,Hao French Polynesia,-18.0747,-140.946,-39600,11184,
HRE,FVHA,Harare Zimbabwe,-17.9325,31.0939,7200,15500,"KQD,KQ,KLD"
HRB,ZYHB,Harbin China,45.6231,126.25,28800,10490,"MU,CZ"
HGA,HCMH,Hargeisa Somalia,9.5181,44.0886,10800,8005,
HRL,KHRL,Harlingen TX,26.2281,-97.6542,-21600,8339,"DL,DVH,NW"
MDT,KMDT,Harrisburg PA,40.1928,-76.7628,-18000,9994,"DL,DVH,NW,PAH"
LIV,FLHN,Harry Mwanga Nkumbula International,-17.8211,25.8169,7200,9843,
EVE,ENEV,Harstad/Narvik Evenes Norway,68.4889,16.6781,3600,9202,
BDL,KBDL,Hartford CT,41.9389,-72.6831,-18000,9512,"DL,DVH,NEH,NW"
HAA,ENHK,Hasvik Norway,70.4867,22.1394,3600,3360,
PIB,KPIB,Hattiesburg MS,31.4667,-89.3367,-21600,6517,NW
HAU,ENHD,Haugesund Norway,59.3431,5.2125,3600,6937,
HAV,MUHA,Havana Cuba,22.9889,-82.4089,-18000,13142,"SUD,AM,AF,DVH,KLD,KL,PAH,VSD"
HDN,KHDN,Hayden CO,40.4806,-107.2169,-25200,9987,"DL,DVH,WAH"
HFE,ZSOF,Hefei China,31.78,117.2978,28800,9848,"MU,MUD"
HEK,ZYHE,Heihe Heilongjiang China,50.1722,127.309,28800,2500,
HLN,KHLN,Helena MT,46.6067,-111.9828,-25200,8984,"DL,NPA,NW"
HEL,EFHK,Helsinki Finland,60.3192,24.9553,7200,11260,"SUD,DVH,KLD,KL,PAH"
HER,LGIR,Heraklion Crete Greece,35.3392,25.18,7200,8973,"SUD,HV,HVD"
HMO,MMHO,Hermosillo Mexico,29.0956,-111.0478,-25200,7527,"AM,AMH,DVH"
HVB,YHBA,Hervey Bay Australia,-25.3189,152.88,39600,4852,VA
UVF,TLPL,Hewanorra Saint Lucia,13.7325,-60.9517,-14400,8987,"DL,DVH,VSD,WSH"
HIB,KHIB,Hibbing MN,47.3864,-92.8389,-21600,6754,"DL,NCA,NW"
HKY,KHKY,Hickory NC,35.7408,-81.3892,-18000,6400,DVH
ITO,PHTO,Hilo HI,19.7197,-155.048,-36000,9817,"HA,NW"
HHH,KHXD,Hilton Head Island SC,32.2331,-80.6997,-18000,4919,DVH
HIJ,RJOA,Hiroshima Japan,34.4356,132.919,32400,9831,
HIX,NTMN,Hiva Oa French Polynesia,-9.7686,-139.011,-39600,5258,
SGN,VVTS,Ho Chi Minh City Viet Nam,10.8175,106.652,25200,12396,"SUD,AF,DVH,KLD,KE,NW,PAH,VND,VN"
HBA,YMHB,Hobart Australia,-42.8378,147.5089,39600,8937,VA
HOG,MUHG,Holguin Cuba,20.7853,-76.3144,-18000,10919,
HOM,PAHO,Homer AK,59.6456,-151.476,-32400,6704,"DVH,WAH"
HKG,VHHH,Hong Kong-Chek Lap Kok China,22.3089,113.9139,28800,12468,"SUD,AF,DL,DVH,KL,KE,VN,VSD"
HKX,VHHX,Hong Kong-Kai Tak China,22.3281,114.194,28800,10930,"DVH,NW,PAH"
HIR,AGGH,Honiara Intl Solomon Islands,-9.4278,160.055,39600,7234,VA
HVG,ENHV,Honningsvåg Finnmark Norway,71.0094,25.9833,3600,2616,
HNL,PHNL,Honolulu HI,21.3181,-157.922,-36000,12294,"AS,DL,DVH,HA,KE,KEH,NW,PAH,WAH,WS"
HQM,KHQM,Hoquiam WA,46.9711,-123.936,-28800,5017,RW
HTN,ZWTN,Hotan Xinjiang Uyghur China,37.0386,79.865,28800,10487,
HLU,NWWH,Houailou New Caledonia,-21.2564,165.617,39600,2500,
HUL,KHUL,Houlton ME,46.1242,-67.7919,-18000,5019,NEH
IAH,KIAH,Houston-Bush Intercontinental TX,29.9806,-95.3389,-21600,12036,"AM,AF,AS,DL,DVH,KLD,KL,NW,PAH,WSH"
EFD,KEFD,Houston-Ellington TX,29.6072,-95.1586,-21600,9037,
HOU,KHOU,Houston-Hobby TX,29.6453,-95.2789,-21600,7615,"DL,DVH,NA,NW,PAH"
HUH,NTTH,Huahine French Polynesia,-16.7047,-151.026,-39600,4920,
HIA,ZSSH,Huai'an China,33.7831,119.117,28800,7904,
HUX,MMBT,Huatulco Mexico,15.7753,-96.2625,-21600,8857,AM
HUI,VVPB,Hue Vietnam,16.4014,107.702,25200,8858,VN
HUY,EGNJ,Humberside United Kingdom,53.5744,-0.3506,0,7210,KL
SVN,KSVN,Hunter AAF Savannah GA,32.01,-81.1458,-18000,11375,
HTS,KHTS,Huntington WV,38.3667,-82.5581,-18000,7011,DVH
HSV,KHSV,Huntsville AL,34.6403,-86.7731,-21600,12642,"DL,DVH,NW"
HON,KHON,Huron SD,44.3847,-98.2281,-21600,7192,"NCA,WAH"
HYA,KHYA,Hyannis MA,41.6694,-70.2803,-18000,5434,NEH
HYD,VOHY,Hyderabad India,17.4531,78.4675,19800,10215,JAD
IAS,LRIA,Iasi Romania,47.1786,27.62,7200,8051,ROH
IBZ,LEIB,Ibiza Spain,38.8728,1.3731,3600,9176,"UX,HVD"
IDA,KIDA,Idaho Falls ID,43.5142,-112.0697,-25200,9004,"DL,DVH,NPA,NW"
IGU,SBFI,Iguassu Falls Brazil,-25.6003,-54.4847,-7200,7213,GLO
IGR,SARI,Iguaçu Argentina,-25.7364,-54.4731,-10800,10828,AR
IOS,SBIL,Ilhéus Brazil,-14.8147,-39.0331,-7200,5202,
ILI,PAIL,Iliamna AK,59.7556,-154.917,-32400,5111,"DVH,WAH"
IMP,SBIZ,Imperatriz-Maranhão Brazil,-5.5306,-47.4581,-7200,6004,
IPL,KIPL,Imperial CA,32.8342,-115.5728,-28800,5324,"RW,DVH"
INZ,DAUI,In Salah Algeria,27.2533,2.5103,3600,9862,
IND,KIND,Indianapolis IN,39.7173,-86.2944,-18000,11205,"DL,DVH,NW"
INN,LOWI,Innsbruck Austria,47.2592,11.3439,3600,6551,"DVH,KLD,PAH,HVD"
INL,KINL,International Falls MN,48.5656,-93.4031,-21600,7396,"DL,NCA"
INV,EGPE,Inverness United Kingdom,57.5422,-4.0475,0,6670,
IYK,KIYK,Inyokern CA,35.6586,-117.829,-28800,7119,DVH
IOA,LGIO,Ioannina Greece,39.6969,20.8219,7200,7878,
YFB,CYFB,Iqualuit NU Canada,63.7564,-68.5556,-18000,8611,
IQQ,SCDA,Iquique Chile,-20.5353,-70.1814,-10800,11039,
IQT,SPQT,Iquitos Peru,-3.7842,-73.3083,-14400,8220,PAH
IKT,UIII,Irkutsk Russia,52.2681,104.3889,28800,11286,SUD
IWD,KIWD,Ironwood MI,46.5267,-90.1308,-21600,6488,"NCA,NW"
ISG,ROIG,Ishigaki-Painushima Japan,24.3964,124.245,32400,6602,
VQS,TJVQ,Isla De Vieques Puerto Rico,18.1344,-65.4936,-14400,4304,SBS
CFX,SCFX,Isla San Felix Chile,-26.2936,-80.0961,-18000,2500,
ISB,OPRN,Islamabad Pakistan,33.6164,73.0981,18000,11003,SV
YGR,CYGR,Isle De-Le Madeleine Canada,47.425,-61.7778,-14400,4494,
IOM,EGNS,Isle of Man,54.0831,-4.6231,0,5872,
ISP,KISP,Islip NY,40.7953,-73.1003,-18000,7008,"DVH,NW"
SAW,LTFJ,Istanbul Sabiha Gokcen Turkey,40.8986,29.3092,7200,9849,
IST,LTBA,Istanbul Turkey,40.9756,28.8203,7200,9924,"SUD,AF,AZ,DVH,KLD,KL,ME,PAH,SV"
QIE,LFMI,Istres-Le Tubé AB France,43.5225,4.9242,3600,12304,
ITH,KITH,Ithaca NY,42.4906,-76.4581,-18000,6988,"DL,DVH"
IVL,EFIV,Ivalo Finland,68.6106,27.4139,7200,8173,
ZIH,MMZH,Ixtapa Mexico,17.6014,-101.46,-21600,8318,"AM,DL,DVH,NW"
ADB,LTBJ,Izmir Turkey,38.2892,27.155,7200,10670,"HV,HVD"
IZO,RJOC,Izumo Japan,35.4133,132.89,32400,6559,
JAC,KJAC,Jackson Hole WY,43.6064,-110.738,-25200,6299,"DL,DVH"
JXN,KJXN,Jackson MI,42.26,-84.4603,-18000,5343,NW
JAN,KJAN,Jackson MS,32.3111,-90.0758,-21600,8526,"DL,DVH,NW"
MKL,KMKL,Jackson TN,35.5994,-88.9156,-21600,6021,NW
HKS,KHKS,Jackson-Hawkins MS,32.3344,-90.2222,-21600,5403,DVH
JAX,KJAX,Jacksonville FL,30.4936,-81.6875,-18000,9995,"DL,DVH,NA,NEH,NW,PAH"
OAJ,KOAJ,Jacksonville NC,34.8289,-77.6119,-18000,7103,DL
NIP,KNIP,Jacksonville-NAS FL,30.2356,-81.6803,-18000,7993,
HLP,WIHH,Jakarta Halim Indonesia,-6.2667,106.891,25200,9854,"KLD,PAH"
CGK,WIII,Jakarta Indonesia,-6.1253,106.656,28800,12014,"AF,GA,KLD,KL,PAH,SV,VN"
JAV,BGJN,Jakobshavn Greenland,69.2431,-51.0569,-10800,2763,
DJB,WIPA,Jambi Indonesia,-1.6381,103.644,25200,2500,
JMS,KJMS,Jamestown ND,46.9292,-98.6781,-21600,6499,NW
JVL,KJVL,Janesville WI,42.62,-89.0414,-21600,7314,NCA
JKS,OIZJ,Jask Iran,25.6531,57.7992,12600,5824,KLD
JED,OEJN,Jeddah Saudi Arabia,21.6792,39.1556,10800,12506,"KQD,KLD,ME,SV,SVD"
CJU,RKPC,Jeju South Korea,33.5114,126.4928,32400,9840,KEH
JBB,WARE,Jember Indonesia,-8.2403,113.694,25200,5397,
JER,EGJJ,Jersey United Kingdom,49.2078,-2.1947,0,5593,KLD
JMU,ZYJM,Jiamusi China,46.84,130.4619,28800,7209,"CZ,CZH"
TNA,ZSJN,Jinan China,36.8567,117.2158,28800,11841,"MU,MUD"
JZH,ZUJZ,Jiuzhaigou China,32.8531,103.682,28800,2500,MF
JPA,SBJP,Joao Pessoa Brazil,-7.1456,-34.9481,-7200,8292,
JDH,VIJO,Jodhpur India,26.2664,73.0492,19800,9596,KLD
JOE,EFJO,Joensuu Finland,62.6589,29.6244,7200,8179,
HLA,FALA,Johannesburg (Lanseria) South Africa,-25.9392,27.9256,7200,10018,
JNB,FAOR,Johannesburg South Africa,-26.1389,28.2456,7200,14397,"AF,DL,DVH,KLD,KL,PAH,SV,VSD"
JLN,KJLN,Joplin MO,37.1517,-94.4981,-21600,6519,
JUB,HSSJ,Juba Sudan,4.8686,31.6031,10800,10104,
JUJ,SASJ,Jujuy Argentina,-24.3928,-65.0978,-10800,9729,AR
JNU,PAJN,Juneau AK,58.3542,-134.576,-32400,8952,"AS,DVH,WAH"
JYV,EFJY,Jyvaskyla Finland,62.4006,25.6728,7200,8779,
JKG,ESGJ,Jönköping Sweden,57.7581,14.0692,3600,7480,
KBL,OAKB,Kabul Afghanistan,34.5656,69.2125,16200,11491,KLD
DNA,RODN,Kadena AB Japan,26.3556,127.767,32400,12124,
KED,GQNK,Kaedi Mauritania,16.1594,-13.5072,0,2500,
KOJ,RJFK,Kagoshima Japan,31.8031,130.719,32400,9868,KE
OGG,PHOG,Kahului HI,20.8981,-156.429,-36000,7025,"AS,DL,DVH,HA,WSH"
KNG,WASK,Kaimana Indonesia,-3.6444,133.696,32400,5250,
KAJ,EFKI,Kajaani Finland,64.2842,27.6875,7200,8212,
KLX,LGKL,Kalamata Greece,37.0681,22.0253,7200,8736,
AZO,KAZO,Kalamazoo MI,42.235,-85.5514,-18000,6514,"DL,DVH,NW"
KGI,YPKG,Kalgoorlie Australia,-30.7892,121.462,28800,6558,VA
KLO,RPVK,Kalibo Philippines,11.6803,122.376,28800,6631,
FCA,KGPI,Kalispell/Columbia Falls MT,48.3114,-114.225,-25200,9029,"RW,AS,DL,DVH,NW"
YKA,CYKA,Kamloops Canada,50.7019,-120.444,-28800,7983,WSH
KDH,OAKN,Kandahar Afghanistan,31.5028,65.8397,16200,10524,KLD
SFJ,BGSF,Kangerlussuaq Greenland,67.0167,-50.6892,-10800,9191,NEH
KNN,GUXN,Kankan Guinea,10.3822,-9.2531,0,2500,
KAN,DNKN,Kano Nigeria,12.0467,8.5242,3600,10841,"KLD,SV"
MKC,KMKC,Kansas City Downtown KS,39.1225,-94.5928,-21600,7006,
MCI,KMCI,Kansas City-Intl MO,39.2964,-94.7139,-21600,10826,"AS,DL,DVH,NCA,NW,WAH"
KHH,RCKH,Kaohsiung Taiwan,22.5764,120.3497,28800,10349,"CI,CID,VN"
KLC,GOOK,Kaolack Senegal,14.1442,-16.0542,0,5249,
KHI,OPKC,Karachi Pakistan,24.9081,67.1617,18000,11159,"KQD,KLD,PAH,SV"
KGF,UAKK,Karaganda Kazakhstan,49.6714,73.3353,21600,10813,SUD
KLV,LKKV,Karlovy Czech Republic,50.2031,12.9147,3600,7063,
KSD,ESOK,Karlstad Sweden,59.4444,13.3369,3600,8251,
KTA,YPKA,Karratha Australia,-20.7119,116.773,28800,6070,VA
KHG,ZWSH,Kashi China,39.5431,76.02,28800,10484,
KZS,LGKJ,Kastelorizo Greece,36.1275,29.5667,7200,2621,
KTM,VNKT,Kathmandu Nepal,27.6967,85.3578,20700,10047,MUD
MPA,FYKM,Katima Namibia,-17.6344,24.1764,3600,7523,
KTW,EPKT,Katowice Poland,50.4742,19.08,3600,10516,
MKK,PHMK,Kaunakakai Hawaii United States,21.1528,-157.096,-36000,4507,
KVA,LGKV,Kavala Greece,40.9139,24.6194,7200,9852,
KYS,GAKD,Kayes Mali,14.4936,-11.4078,0,5268,
ASR,LTAU,Kayseri Turkey,38.7703,35.4953,7200,9832,
KZN,UWKD,Kazan Russia,55.6061,49.2811,10800,12293,SU
EEN,KEEN,Keene NH,42.8981,-72.2706,-18000,6213,"DVH,NEH"
EFL,LGKF,Kefallinia Greece,38.1197,20.5006,7200,8009,
KEF,BIKF,Keflavik Iceland,63.9839,-22.6056,0,10030,"DVH,PAH"
YLW,CYLW,Kelowna BC Canada,49.955,-119.379,-28800,8952,"AS,WS"
KEJ,UNEE,Kemerovo Russia,55.27,86.1072,25200,10491,
ENA,PAEN,Kenai AK,60.5731,-151.245,-32400,7843,WAH
KNZ,GAKA,Kenieba Mali,12.8397,-11.2539,0,2953,
KTG,WIOK,Ketapang Indonesia,-1.8167,109.963,25200,4585,
KTN,PAKT,Ketchikan AK,55.3556,-131.714,-32400,7512,"AS,WAH"
EYW,KEYW,Key West FL,24.5558,-81.7594,-18000,4797,"DL,DVH"
KHV,UHHH,Khabarovsk Russia,48.5281,135.188,32400,13615,
HRK,UKHH,Kharkov Ukraine,49.9325,36.2836,7200,7249,
KRT,HSSS,Khartoum Sudan,15.5889,32.5528,10800,10193,"KQD,KQ,KLD,SV"
KGD,UMKK,Khrabrovo Russia,54.8897,20.5944,10800,8206,SU
KBP,UKBB,Kiev Ukraine,50.3439,30.8942,7200,13078,"AF,DVH,KL"
KFA,GQNF,Kiffa Mauritania,16.5894,-11.4058,0,5249,
KGL,HRYR,Kigali Rwanda,-1.9675,30.1333,7200,11485,"KQD,KQ,KL"
JRO,HTKJ,Kilimanjaro Tanzania,-3.4292,37.0742,10800,11852,"KLD,KL"
ILE,KILE,Killeen TX,31.0856,-97.6858,-21600,5504,"DVH,NW"
GRK,KGRK,Killeen-Fort Hood,31.0667,-97.8289,-21600,10030,"DL,DVH"
AKN,PAKN,King Salmon AK,58.6756,-156.648,-32400,8826,"DVH,WAH"
IGM,KIGM,Kingman AZ,35.2594,-113.938,-25200,6833,RW
IMT,KIMT,Kingsford/Iron Mountain MI,45.8178,-88.1139,-21600,6506,"DL,DVH,NCA,NW"
KIN,MKJP,Kingston Jamaica,17.9356,-76.7867,-18000,8919,"DL,KLD,PAH,WSH"
FIH,FZAA,Kinshasa Democratic Rep Congo,-4.3856,15.4442,3600,15279,"AF,KQD,KQ,PAH"
ISO,KISO,Kinston NC,35.3314,-77.6081,-18000,11515,DVH
KKN,ENKR,Kirkenes Norway,69.7247,29.8914,3600,6233,
KRN,ESNQ,Kiruna Sweden,67.8219,20.3367,3600,8180,
ZIC,FZIC,Kisangani Congo,0.4817,25.3378,7200,11547,
KMU,HCMK,Kisimayu Airport,-0.3497,42.4667,10800,12139,
KSI,GUKU,Kissidougou Guniea,9.1606,-10.1244,0,6562,
ISM,KISM,Kissimmee FL,28.2894,-81.4367,-18000,6016,
KIS,HKKI,Kisumu Kenya,-0.0858,34.7289,10800,10077,"KQD,KQ"
KKJ,RJFR,Kitakyushu Japan,33.8456,131.035,32400,5243,
YKF,CYKF,Kitchener ON Canada,43.4606,-80.3781,-18000,7013,WSH
KIT,LGKC,Kithira Greece,36.2742,23.0167,7200,4856,
KTT,EFKT,Kittila Finland,67.6983,24.8481,7200,8173,
LMT,KLMT,Klamath Falls OR,42.1558,-121.733,-28800,10302,RW
TYS,KTYS,Knoxville TN,35.8125,-83.9929,-18000,9009,"DL,DVH,NW"
COK,VOCI,Kochi India,10.1536,76.4067,19800,11153,"JAD,SV"
KCZ,RJOK,Kochi Japan,33.5458,133.669,32400,8204,
ADQ,PADQ,Kodiak AK,57.7492,-152.494,-32400,7546,"DVH,WAH"
KCT,VCCK,Koggala Sri Lanka,5.9986,80.3333,19800,3142,
USM,VTSM,Koh Samui Thailand,9.5492,100.062,25200,8627,
KOK,EFKK,Kokkola/Pietarsaari Finland,63.7203,23.1392,7200,8176,
KMQ,RJNK,Komatsu Japan,36.3939,136.407,32400,8857,KE
KOA,PHKO,Kona HI,19.7381,-156.046,-36000,11469,"AS,DL,DVH,HA"
KYA,LTAN,Konya Turkey,37.9806,32.5625,10800,11444,
KNQ,NWWD,Koné New Caledonia,-21.0533,164.838,39600,3284,
HGO,DIKO,Korhogo Cote D'Ivoire,9.3872,-5.5542,0,6890,
KRL,ZWKL,Korla China,41.6978,86.1289,28800,2500,
ROR,PTRO,Koror Palau,7.3669,134.544,32400,7199,"DL,DVH"
KGS,LGKO,Kos Greece,36.7944,27.0908,7200,7880,AZD
KSC,LZKZ,Kosice Slovakia,48.6628,21.2406,3600,10166,OK
TTK,PTSA,Kosrae Island Micronesia,5.3569,162.958,39600,5759,
BKI,WBKK,Kota Kinabalu Malaysia,5.9444,116.053,28800,9829,
OTZ,PAOT,Kotzebue AK,66.8842,-162.598,-32400,5882,DVH
KOU,FOGK,Koulamoutou Gabon,-1.1847,12.4414,3600,2500,
KOC,NWWK,Koumac New Caledonia,-20.5464,164.255,39600,3615,
KBV,VTSG,Krabi Thailand,8.0958,98.8389,25200,6922,
KRK,EPKK,Krakow Poland,50.0767,19.7842,3600,8353,
KRF,ESNK,Kramfors-Sollefteå Sweden,63.0483,17.7689,3600,6547,
KRR,URKK,Krasnodar Russia,45.0347,39.17,10800,9842,SU
KJA,UNKL,Krasnojarsk Russia,56.1728,92.4931,25200,12195,SUD
KBI,FKKB,Kribi Cameroon,2.8739,9.9778,3600,5944,
KRS,ENCN,Kristiansand Norway,58.2042,8.0853,3600,6648,KL
KSO,ENKB,Kristiansund Norway,63.1117,7.8258,3600,7750,
KUL,WMKK,Kuala Lumpur Malaysia,2.7456,101.71,28800,13575,"AF,CI,KLD,KL,KE,SV,VN"
KCH,WBGG,Kuching Malaysia,1.4928,110.36,28800,8352,
KUS,BGKK,Kulusuk Greenland,65.5731,-37.1231,-3600,3964,NEH
KMJ,RJFT,Kumamoto Japan,32.8369,130.855,32400,9838,
KMG,ZPPP,Kunming China,25.105,102.9317,28800,14814,"MU,MUD"
KNX,YPKU,Kununurra Australia,-15.7781,128.708,28800,6005,VA
KUO,EFKU,Kuopio Finland,63.0083,27.7944,7200,9171,
KOE,WATT,Kupang Indonesia,-10.1717,123.671,28800,8207,KLD
KUH,RJCK,Kushiro Japan,43.0406,144.193,32400,8214,
KAO,EFKS,Kuusamo Finland,65.9903,29.2317,7200,8177,
KWI,OKBK,Kuwait City Kuwait,29.2264,47.9683,10800,11509,"DVH,KLD,KL,ME,SV"
KWA,PKWA,Kwajalein Marshall Islands,8.72,167.731,46800,6675,
CGN,EDDK,Köln/Bonn Germany,50.8667,7.1431,3600,12502,"AF,KLD,KL,PAH"
LCG,LECO,La Coruna Galicia Spain,43.3017,-8.3767,3600,6401,UX
LSE,KLSE,La Crosse WI,43.8781,-91.2567,-21600,8756,"DL,DVH,NCA,NW"
LPB,SLLP,La Paz Bolivia,-16.5131,-68.1828,-10800,13145,PAH
LAP,MMLP,La Paz Mexico,24.0725,-110.362,-21600,8229,"AM,DVH"
IRJ,SANL,La Rioja Argentina,-29.3814,-66.7956,-7200,9402,
LRM,MDLR,La Romana Dominican Republic,18.4522,-68.9114,-18000,9673,SBS
EUN,GMML,Laayoune Morocco,27.1517,-13.2192,0,8897,
LEK,GULB,Labe Guinea,11.3256,-12.2867,0,6572,
LBJ,WATO,Labuan Bajo Indonesia,-8.4867,119.889,25200,4570,
LBU,WBKL,Labuan Malaysia,5.3006,115.25,28800,9067,
LCI,KLCI,Laconia NH,43.5728,-71.4178,-18000,5946,NEH
LAE,AYNZ,Lae Papua New Guinea,-6.5697,146.726,36000,8007,
LAF,KLAF,Lafayette IN,40.4119,-86.9367,-18000,6590,NW
LFT,KLFT,Lafayette LA,30.2053,-91.8878,-21600,8053,"DL,DVH,NW"
LOO,DAUL,Laghouat Algeria,33.7639,2.9272,3600,2500,
LOS,DNMM,Lagos Nigeria,6.5767,3.3192,3600,12780,"AF,DL,KLD,KL,ME,PAH,VSD"
LHE,OPLA,Lahore Pakistan,31.5214,74.4042,18000,11042,SV
TER,LPLA,Lajes AB Azores,38.7617,-27.0906,-3600,10871,PAH
LCH,KLCH,Lake Charles LA,30.1258,-93.2228,-21600,6520,NW
TVL,KTVL,Lake Tahoe CA,38.8939,-119.995,-28800,8548,RW
LAL,KLAL,Lakeland FL,27.9889,-82.0181,-18000,8504,
LKL,ENNA,Lakselv Finnmark Norway,70.0689,24.9739,3600,9114,
LBQ,FOGR,Lambaréné Gabon,-0.7042,10.2456,3600,7172,
SUF,LICA,Lamezia Terme Italy,38.9064,16.2417,3600,9783,AZ
LMP,LICD,Lampedusa Italy,35.4978,12.6181,3600,5901,
LNY,PHNY,Lanai City Hawaii United States,20.7856,-156.951,-36000,5017,
LDV,LFRJ,Landivisiau France,48.5303,-4.1508,3600,8854,
LUV,WAPL,Langgur Indonesia,-5.6617,132.731,32400,4265,
LGK,WMKL,Langkawi Malaysia,6.3328,99.7328,25200,12559,
LFI,KLFI,Langley AFB VA,37.0828,-76.3603,-18000,10019,
LAI,LFRO,Lannion France,48.7542,-3.4714,3600,5551,
LAN,KLAN,Lansing MI,42.7781,-84.5867,-18000,8520,"DL,DVH,NCA,NW"
ACE,GCRR,Lanzarote Spain,28.9453,-13.6042,-3600,7886,
LHW,ZLLL,Lanzhou China,36.5153,103.621,28800,11828,MU
LRD,KLRD,Laredo TX,27.5431,-99.4611,-21600,8225,NW
LCA,LCLK,Larnaca Cyprus,34.875,33.6242,7200,9814,"SUD,ME,ROH"
LPA,GCLP,Las Palmas Spain,27.9317,-15.3856,-3600,10265,"KLD,PAH,HVD"
LAS,KLAS,Las Vegas NV,36.08,-115.152,-28800,14495,"AM,RW,AS,DL,DVH,NW,PAH,VS,VSD,WAH,WS,WSH"
LTL,FOOR,Lastourville Gabon,-0.8331,12.75,3600,6234,
LBE,KLBE,Latrobe PA,40.2756,-79.4042,-18000,8228,DVH
LST,YMLT,Launceston Australia,-41.5453,147.214,39600,6508,VA
LWM,KLWM,Lawrence MA,42.7167,-71.1231,-18000,5009,NEH
LAW,KLAW,Lawton OK,34.5675,-98.4164,-21600,8627,DVH
LEH,LFOH,Le Havre France,49.5339,0.0881,3600,7559,
LTQ,LFAT,Le Touquet France,50.5147,1.6275,3600,6061,
LXV,KLXV,Leadville CO,39.2192,-106.3164,-25200,6410,WAH
LEB,KLEB,Lebanon NH,43.6256,-72.3042,-18000,5490,NEH
LBA,EGNM,Leeds Bradford United Kingdom,53.8656,-1.6606,0,7420,KL
LWR,EHLW,Leeuwarden Netherlands,53.2286,5.7606,3600,7828,KLD
LEJ,EDDP,Leipzig Germany,51.4239,12.2358,3600,11786,KLD
LKN,ENLK,Leknes Nordland Norway,68.1525,13.6092,3600,3111,
BJX,MMLO,Leon Mexico,20.9928,-101.481,-21600,11501,"AM,DL,NW"
YQL,CYQL,Lethbridge AB Canada,49.63,-112.7994,-25200,6492,WAH
LET,SKLT,Leticia Columbia,-4.1917,-69.9419,-14400,6193,PAH
LWB,KLWB,Lewisburg WV,37.8581,-80.3992,-18000,7011,"DVH,PAH"
LWS,KLWS,Lewiston ID,46.3742,-117.015,-28800,6523,"RW,AS,DL,NW"
LWT,KLWT,Lewistown MT,47.0492,-109.467,-25200,6087,NW
LEX,KLEX,Lexington KY,38.037,-84.6054,-18000,7010,"DL,DVH,NW"
LXA,ZULS,Lhasa China,29.2956,90.9178,28800,13123,
LSW,WITM,Lhoksumawe Indonesia,5.2264,96.9503,25200,2500,
LIR,MRLB,Liberia Costa Rica,10.5931,-85.5442,-21600,9004,"DL,DVH"
LBV,FOOL,Libreville Gabon,0.4581,9.4117,3600,9896,AF
LGG,EBLG,Liege Belgium,50.6372,5.4431,3600,11903,
LIF,NWWL,Lifou Loyalty Islands New Caledonia,-20.775,167.24,39600,3612,
LIH,PHLI,Lihue HI,21.975,-159.338,-36000,6533,"AS,DL,DVH,HA,WSH"
LJG,ZPLJ,Lijiang City China,26.6792,100.246,28800,9843,
LIL,LFQQ,Lille France,50.5617,3.0892,3600,9284,AF
LLW,FWKI,Lilongwe Malawi,-13.7828,33.7775,7200,11616,"KQD,KQ,KLD"
LIM,SPJC,Lima Peru,-12.0214,-77.1139,-18000,11564,"AR,AM,AF,DL,KLD,KL,NW,PAH"
LXS,LGLM,Limnos Greece,39.9169,25.2364,7200,9892,
LIG,LFBL,Limoges France,45.8628,1.1794,3600,8200,
LNK,KLNK,Lincoln NE,40.8508,-96.7592,-21600,12930,"DL,NW"
LPI,ESSL,Linkoping Sweden,58.4064,15.6794,3600,7134,KL
LNZ,LOWL,Linz Austria,48.2353,14.1881,3600,9811,KLD
LIS,LPPT,Lisbon Portugal,38.7806,-9.135,0,12495,"UX,AF,AZD,DVH,KLD,KL,PAH"
LIT,KLIT,Little Rock AR,34.7294,-92.2242,-21600,8280,"DL,DVH,NW"
LZH,ZGZH,Liuzhou China,24.3667,109.533,28800,8333,
LPL,EGGP,Liverpool United Kingdom,53.3331,-2.8489,0,7490,KLD
LVI,FLLI,Livingstone Zambia,-17.8217,25.8228,7200,2500,"KQD,KQ"
LJU,LJLJ,Ljubljana Slovenia,46.2236,14.4575,3600,10819,AF
MTS,FDMS,Lobamba Swaziland,-26.5292,31.3075,7200,8535,
LOI,FNLB,Lobito Angola,-12.3711,13.5367,3600,2500,
LGU,KLGU,Logan UT,41.7911,-111.851,-25200,9099,DL
LFW,DXXX,Lome Togo,6.1653,1.2531,0,9876,"AF,KLD"
YXU,CYXU,London ON Canada,43.0356,-81.1539,-18000,8839,"DVH,NW,WSH"
SEN,EGMC,London Southend United Kingdom,51.5714,0.6956,0,5933,
LCY,EGLC,London-City United Kingdom,51.5053,0.055,0,4930,DVH
LON,EGCR,London-Croydon United Kingdom,51.3556,-0.1267,0,1692,
LGW,EGKK,London-Gatwick United Kingdom,51.1481,-0.1903,0,10352,"DVH,NW,HV,HVD,VS,VSD,WSH"
LHR,EGLL,London-Heathrow United Kingdom,51.4744,-0.46,0,12786,"SUD,AM,AF,AZ,DL,DVH,KQD,KLD,KL,ME,NA,PAH,SV,VA,VN,VS,VSD"
LTN,EGGW,London-Luton United Kingdom,51.8742,-0.3675,0,7075,AF
MSE,EGMH,London-Manston United Kingdom,51.3422,1.3453,0,2500,KLD
STN,EGSS,London-Stansted United Kingdom,51.8844,0.2344,0,10018,
LDB,SBLO,Londrina Brazil,-23.3303,-51.1367,-7200,6904,GLO
LGB,KLGB,Long Beach CA,33.8175,-118.1506,-28800,10003,"RW,ASH,DL,DVH,NW"
LRE,YLRE,Longreach Australia,-23.4342,144.28,36000,6360,KLD
DJL,LFSD,Longvic AB France,47.2672,5.0856,3600,7870,
LYR,ENSB,Longyear Norway,78.2458,15.465,3600,7977,
LDH,YLHI,Lord Howe Island Australia,-31.5378,159.077,39600,2905,VAH
LTO,MMLT,Loreto Mexico,25.9892,-111.348,-21600,7296,DVH
LRT,LFRH,Lorient France,47.7606,-3.44,3600,7874,
LAX,KLAX,Los Angeles CA,33.9425,-118.4075,-28800,12078,"SU,AM,AF,RW,ASH,CI,MU,CZ,DL,DVH,GA,KL,NA,NW,PAH,SV,VA,VS,WAH,WS"
LMM,MMLM,Los Mochis Mexico,25.6844,-109.081,-25200,6579,AM
SDF,KSDF,Louisville KY,38.1744,-85.736,-18000,11666,"DL,DVH,NW"
LDE,LFBT,Lourdes France,43.1786,-0.0064,3600,9853,
LAD,FNLU,Luanda Angola,-8.8581,13.2306,3600,12203,"AF,KL"
LPQ,VLLB,Luang Prabang Laos,19.8969,102.161,25200,8216,VN
LBB,KLBB,Lubbock TX,33.6633,-101.823,-21600,11538,"DVH,NW"
LUZ,EPLB,Lubin Poland,51.2319,22.6903,3600,8231,
FBM,FZQA,Lubumbashi Democratic Rep Congo,-11.5908,27.5306,7200,10354,"KQD,KQ"
LKO,VILK,Lucknow India,26.7617,80.8831,19800,8994,
LUG,LSZA,Lugano Switzerland,46.0061,8.9172,3600,4540,
LUA,VNLK,Lukla Nepal,27.6878,86.7314,19800,1616,
LLA,ESPA,Luleå Sweden,65.5439,22.1192,3600,10964,
LBN,FQLU,Lumbo Mozambique,-15.0439,40.6772,7200,4921,
LYA,ZHLY,Luoyang China,34.7506,112.4,28800,2500,MU
MLA,LMML,Luqa Malta,35.8558,14.4764,3600,11643,"AZ,HV,HVD"
LUN,FLLS,Lusaka Zambia,-15.3306,28.4522,7200,2500,"KQD,KQ"
LUW,WAMW,Luwuk Indonesia,-1.0389,122.772,28800,2500,
LUX,ELLX,Luxembourg City Luxembourg,49.6264,6.2114,3600,13145,"KLD,KL"
LXR,HELX,Luxor Egypt,25.6706,32.7064,7200,9868,SV
LWO,UKLL,Lvov Ukraine,49.8125,23.9561,7200,8463,
LYC,ESNL,Lycksele Sweden,64.5472,18.7178,3600,6798,
LYH,KLYH,Lynchburg VA,37.3269,-79.2004,-18000,7113,DVH
LYS,LFLL,Lyon France,45.7253,5.0906,3600,13154,"SUD,AF,DVH,KL"
MST,EHBK,Maastricht Netherlands,50.9114,5.7694,3600,8771,KLD
MCP,SBMQ,Macapá-Pará Brazil,0.0506,-51.0703,-7200,6934,
XMS,SEMC,Macas Ecuador,-2.2992,-78.1206,-18000,8202,
MFM,VMMC,Macau Macau,22.1492,113.591,28800,11048,
MCZ,SBMO,Maceió Brazil,-9.5106,-35.7917,-7200,8544,"DVH,GLO"
MKY,YBMK,Mackay Australia,-21.1717,149.179,36000,6521,VA
MCN,KMCN,Macon GA,32.6928,-83.6492,-18000,6507,"DL,DVH"
FNC,LPMA,Madeira Funchal Portugal,32.6942,-16.7778,0,9127,"UX,DVH,HVD"
MED,OEMA,Madinah Saudi Arabia,24.5528,39.705,10800,14292,"ME,SV,SVD"
MSN,KMSN,Madison WI,43.1394,-89.3375,-21600,9007,"DL,DVH,NCA,NW"
MAD,LEMD,Madrid Spain,40.4717,-3.5592,3600,14312,"SUD,AR,AM,UX,AF,DL,DVH,KLD,KL,PAH,SV"
IXM,VOMD,Madurai India,9.835,78.0883,19800,7518,
GDX,UHMM,Magadan Russia,59.9106,150.72,39600,11307,SUD
MGD,SLMG,Magdalena Bolivia,-13.2583,-64.0617,-18000,4519,PAH
MQF,USCM,Magnitogorsk Russia,53.3925,58.7553,18000,10661,SUD
MJN,FMNM,Mahajanga Madagascar,-15.6667,46.3508,10800,7252,
VVB,FMMH,Mahanoro Madagascar,-19.8333,48.8,10800,4429,
MXT,FMMO,Maintirano Madagascar,-18.0514,44.0425,10800,4265,
MKP,NTGM,Makemo French Polynesia,-16.5839,-143.658,-39600,4921,
MCX,URML,Makhachkala Russia,42.8164,47.6519,10800,9301,
MKU,FOOK,Makokou Gabon,0.5831,12.9167,3600,2500,
MKJ,FCOM,Makoua Congo,-0.0208,15.5747,3600,5828,
SSG,FGSL,Malabo Equatorial Guinea,3.755,8.7083,3600,9674,AF
AGP,LEMG,Malaga Spain,36.6728,-4.4989,3600,10516,"SUD,UX,AF,DVH,HVD"
WML,FMMC,Malaimbandy Madagascar,-20.3533,45.5531,10800,3921,
MAK,HSSM,Malakal Sudan,9.5558,31.6508,10800,6589,
MLG,WARA,Malang Indonesia,-7.9267,112.7139,25200,6464,
PDP,SULS,Maldonado Uruguay,-34.8569,-55.0981,-10800,6996,AR
MYD,HKML,Malindi Kenya,-3.2292,40.1017,10800,4622,KQD
MMX,ESMS,Malmo Sweden,55.5478,13.3531,3600,9183,KLD
MLE,VRMM,Malé Maldives,4.1914,73.5292,18000,10547,"SUD,SV"
MMH,KMMH,Mammoth Lakes CA,37.6239,-118.8389,-28800,6991,ASH
MJU,WAAJ,Mamuju Indonesia,-2.5914,119.026,28800,2500,
MJC,DIMN,Man Cote D'Ivoire,7.2719,-7.5875,0,6726,
MDC,WAMM,Manado Indonesia,1.5456,124.925,28800,8734,KLD
MGA,MNMG,Managua Nicaragua,12.1403,-86.1678,-21600,8015,"AM,DL,DVH,PAH"
WVK,FMSK,Manakara Madagascar,-22.1167,48.0164,10800,3937,
WMR,FMNC,Mananara Madagascar,-16.1689,49.7756,10800,2500,
MNJ,FMSM,Mananjary Madagascar,-21.2081,48.3556,10800,4921,
FRU,UCFM,Manas Kyrgyzstan,43.0614,74.4775,25200,13774,SUD
MAO,SBEG,Manaus Brazil,-3.04,-60.0506,-14400,8914,"DVH,GLO,PAH"
MHT,KMHT,Manchester NH,42.9333,-71.4375,-18000,9250,"DL,DVH,NEH,NW"
MAN,EGCC,Manchester United Kingdom,53.3528,-2.2731,0,10005,"AF,DL,DVH,KLD,KL,SV,VS"
WMD,FMSC,Mandabe Madagascar,-21.0339,44.9533,10800,3510,
MDL,VYMD,Mandalay Burma,21.7014,95.9775,23400,14072,
WMA,FMNX,Mandritsara Madagascar,-15.8339,48.8361,10800,3740,
XMH,NTGI,Manihl French Polynesia,-14.4375,-146.071,-39600,3051,
MNL,RPLL,Manila Philippines,14.5081,121.019,28800,11796,"DL,DVH,KLD,KL,NW,PAH,SV"
MBL,KMBL,Manistee MI,44.2722,-86.2467,-18000,5491,NCA
MTW,KMTW,Manitowoc WI,44.1286,-87.6806,-21600,5010,NCA
MJA,FMSJ,Manja Madagascar,-21.4164,44.3161,10800,5249,
MKT,KMKT,Mankato MN,44.2228,-93.9192,-21600,6627,WAH
MHG,EDFM,Mannheim Germany,49.4728,8.5142,3600,3479,KLD
MKW,WASR,Manokwari Indonesia,-0.8939,134.05,32400,2500,KLD
MKN,WAUU,Manokwari Indonesia WAUU,-0.8939,134.05,32400,6562,DVH
MFD,KMFD,Mansfield OH,40.8214,-82.5164,-18000,9004,
MEC,SEMT,Manta Ecuador,-0.9453,-80.6778,-18000,9336,
ZLO,MMZO,Manzanillo Mexico,19.1444,-104.559,-21600,7444,"AM,DL,DVH"
MPM,FQMA,Maputo Mozambique,-25.9208,32.5722,7200,12034,"KQD,KQ"
MDQ,SAZM,Mar del Plata Argentina,-37.9339,-57.5728,-10800,7216,AR
MAR,SVMC,Maracaibo Venezuela,10.5581,-71.7275,-14400,10140,"DVH,KLD,PAH"
MFQ,DRRM,Maradi Niger,13.5,7.1331,3600,6070,
N/A,SAWB,Marambio Antarctica,-64.2444,-56.6303,-10800,4134,
MTH,KMTH,Marathon FL,24.7258,-81.0508,-18000,5009,DVH
SLZ,SBSL,Marechal Cunha Machado Brazil,-2.5869,-44.2358,-7200,7887,
PMV,SVMG,Margarita Island Venezuela,10.9156,-63.965,-14400,10478,
MAI,KMAI,Marianna FL,30.8378,-85.1814,-18000,4908,NA
UIS,FSMA,Marie-Louise Island Seychelles,-6.1803,53.1464,14400,2500,
MHQ,EFMA,Mariehamn Åland Islands Findland,60.1217,19.8964,7200,6235,
DOM,TDPD,Marigot Dominica,15.5467,-61.3011,-14400,5750,SBS
MGF,SBMG,Maringa Brazil,-23.4181,-51.9058,-7200,6943,
MVR,FKKL,Maroua Cameroon,10.4542,14.2531,3600,6910,
MQT,KSAW,Marquette MI,46.3558,-87.4042,-21600,12427,"DL,DVH,NCA"
RAK,GMMX,Marrakech Morocco,31.6056,-8.0356,0,10168,"AF,HVD"
MRS,LFML,Marseille France,43.435,5.2131,3600,11571,AF
MHH,MYAM,Marsh Harbour Bahamas,26.51,-77.085,-18000,6110,DVH
MAJ,PKMJ,Marshall Islands Intl. Airport,7.0644,171.272,46800,7906,
MYV,KMYV,Marysville CA,39.0978,-121.57,-28800,6018,RW
MEE,NWWR,Maré Loyalty Islands New Caledonia,-21.4817,168.038,39600,3283,
MSH,OOMA,Masirah AB Oman,20.6753,58.8906,14400,2500,
MCW,KMCW,Mason City IA,43.1578,-93.3311,-21600,6518,NW
MSS,KMSS,Massena NY,44.9356,-74.8456,-18000,5603,
MVT,NTGV,Mataiva French Polynesia,-14.8694,-148.713,-39600,3937,
MAX,GOSM,Matam Senegal,15.5936,-13.3228,0,5249,
MAM,MMMA,Matamoros Mexico,25.7692,-97.5253,-21600,7568,AM
MYJ,RJOM,Matsuyama Japan,33.8267,132.699,32400,8212,
MUN,SVMT,Maturin Venezuela,9.7481,-63.1667,-14400,6902,
MOF,WATC,Maumere Indonesia,-8.6406,122.2369,28800,6070,
MAU,NTTP,Maupiti French Polynesia,-16.4264,-152.243,-39600,3068,
SEZ,FSIA,Maye Island Seychelles,-4.6742,55.5189,14400,9815,"KQD,KQ"
MZT,MMMZ,Mazatlan Mexico,23.1603,-106.266,-25200,8873,"AM,DL,DVH,NW"
MDK,FZEA,Mbandaka Democratic Rep Congo,0.0225,18.2883,3600,7141,
MFE,KMFE,McAllen TX,26.1756,-98.2381,-21600,7131,"DVH,NW"
TCM,KTCM,McChord Field Tacoma Washington,47.1375,-122.476,-28800,10112,
MCG,PAMC,McGrath AK,62.9528,-155.607,-32400,5465,DVH
ICE,NZIR,McMurdo Antarctica,-77.8672,167.056,46800,2500,
KNO,WIMM,Medan-Kualanamu Indonesia,3.6417,98.8831,25200,12340,
MES,WIMK,Medan-Soewondo-Polonia Indonesia,3.5581,98.6717,25200,9538,KLD
MDE,SKRG,Medelin Colombia,6.1639,-75.4231,-18000,11537,DVH
MFR,KMFR,Medford OR,42.3742,-122.873,-28800,8813,"RW,AS,DL,NW"
MEH,ENMH,Mehamn Norway,71.0294,27.8261,3600,2875,
MXZ,ZGMX,Meizhou China,24.2664,116.0997,28800,7874,
MKB,FOOE,Mekambo Gabon,0.9703,13.9517,3600,3609,
MEK,GMFM,Meknes Morocco,33.8844,-5.5281,0,2500,
MEL,YMML,Melbourne Australia,-37.6728,144.8419,39600,12031,"DVH,KLD,PAH,VA,VN,VAH"
MLB,KMLB,Melbourne FL,28.1025,-80.6453,-18000,10174,"DL,DVH,NA"
MLN,GEML,Melilla Spain,35.2794,-2.9564,-3600,4689,
MMB,RJCM,Memanbetsu Japan,43.8806,144.164,32400,8217,
MEM,KMEM,Memphis TN,35.0436,-89.9767,-21600,11155,"DL,DVH,NW"
MDZ,SAME,Mendoza Argentina,-32.8314,-68.7928,-10800,9579,AR
MNM,KMNM,Menominee MI,45.1267,-87.6383,-21600,5996,NCA
MAH,LEMH,Menorca Spain,39.8619,4.2181,3600,8376,HVD
MKQ,WAKK,Merauke Indonesia,-8.5203,140.418,32400,6119,
MCE,KMCE,Merced CA,37.2847,-120.5139,-28800,5919,DVH
MID,MMMD,Merida Mexico,20.9361,-89.6567,-21600,10516,"AM,NW,PAH"
MEI,KMEI,Meridian MS,32.3328,-88.7514,-21600,10020,"DVH,NW"
ETZ,LFJL,Metz France,48.9819,6.2511,3600,8183,
MXL,MMML,Mexicali Mexico,32.6306,-115.241,-28800,8490,AM
MEX,MMMX,Mexico City Mexico,19.4356,-99.0706,-21600,15441,"AM,AMH,AF,DL,DVH,KLD,KL,NW,PAH"
MIA,KMIA,Miami FL,25.7931,-80.2906,-18000,12994,"SU,AR,AM,UX,AF,AZ,DL,DVH,GLO,KLD,NA,NEH,NW,PAH,VS,WAH,WS"
MIG,ZUMY,Mian Yang China,31.43,104.739,28800,2500,
ZVA,FMMN,Miandrivazo Madagascar,-19.5667,45.45,10800,3609,
MAF,KMAF,Midland/Odessa TX,31.9417,-102.202,-21600,9536,"DVH,NW"
MDY,PMDY,Midway Island HI,28.2033,-177.379,-39600,7902,PAH
JMK,LGMK,Mikonos Greece,37.4367,25.3464,7200,6262,
LIN,LIML,Milan-Linate Italy,45.4453,9.2767,3600,8022,"AF,AZ,AZD,KL"
MXP,LIMC,Milan-Malpensa Italy,45.6314,8.7264,3600,12878,"SUD,AZ,OK,DL,DVH,ME,NW"
MHZ,EGUN,Mildenhall AB United Kingdom,52.3617,0.4864,0,9193,
MQL,YMIA,Mildura Australia,-34.2292,142.086,39600,5999,VA
MLS,KMLS,Miles City MT,46.4278,-105.886,-25200,5685,NW
MLF,KMLF,Milford UT,38.4258,-113.013,-25200,5016,DVH
MLT,KMLT,Millinocket ME,45.6478,-68.6856,-18000,4714,NEH
MKE,KMKE,Milwaukee WI,42.9467,-87.8967,-21600,9917,"DL,DVH,NCA,NW"
PDG,WIMG,Minangkabau Indonesia,-0.875,100.352,25200,7088,
MTT,MMMT,Minatitlan Mexico,18.1033,-94.5806,-21600,6916,AM
MRV,URMM,Mineralnye Vody Russia,44.2247,43.0831,10800,12800,SUD
YLP,CYLP,Mingan QC Canada,50.2911,-64.1453,-14400,2500,NEH
FCM,KFCM,Minneapolis Flying Cloud MN,44.8275,-93.4581,-21600,4994,NPA
MSP,KMSP,Minneapolis/St Paul MN,44.8803,-93.2167,-21600,10999,"AS,DL,DVH,NCA,NW,WAH"
MOT,KMOT,Minot ND,48.2592,-101.2797,-21600,7713,"DL,NCA,NW"
MSQ,UMMS,Minsk Belarus,53.8822,28.0319,7200,12057,SUD
MVX,FOGV,Minvoul Gabon,2.1578,12.1233,3600,3609,
MYY,WBGR,Miri Malaysia,4.3219,113.9867,28800,9059,
MSJ,RJSM,Misawa AB  Japan,40.7022,141.376,32400,10136,
MSO,KMSO,Missoula MT,46.9156,-114.091,-25200,9517,"AS,DL,DVH,NW"
MHE,KMHE,Mitchell SD,43.7744,-98.0381,-21600,6695,"NCA,NW"
MJI,HLLM,Mitiga Libya,32.8939,13.2758,3600,10993,
MZC,FOOM,Mitzic Gabon,0.7831,11.55,3600,4593,
KMI,RJFM,Miyazkai Japan,31.8769,131.448,32400,8611,
MQN,ENRA,Mo i Rana Nordland Norway,66.3639,14.3014,3600,2751,
CNY,KCNY,Moab Canyonlands Field UT,38.755,-109.755,-25200,7104,DL
MGX,FOGI,Moabi Gabon,-2.4364,11.0067,3600,3609,
MFF,FOOD,Moanda Gabon,-1.5378,13.2694,3600,5919,
MOB,KMOB,Mobile AL,30.6914,-88.2428,-21600,8537,"DL,DVH,NW"
MGQ,HCMM,Mogadishu Somalia,2.0144,45.3047,10800,10608,KQD
OHE,ZYMH,Mohe China,52.9119,122.43,28800,2500,
NWA,FMCI,Mohéli Comoros,-12.2981,43.7664,10800,4240,
MOL,ENML,Molde Norway,62.7444,7.2625,3600,6831,
MLI,KMLI,Moline/Quad Cities IL/IA,41.4481,-90.5069,-21600,10018,"DL,NW"
MBA,HKMO,Mombasa Kenya,-4.0281,39.5978,10800,11091,"KQD,KQ"
MIR,DTMB,Monastir Tunisia,35.7581,10.7539,3600,9633,HVD
LOV,MMMV,Monclova Mexico,26.9556,-101.47,-21600,7671,
YQM,CYQM,Moncton NB Canada,46.1119,-64.6783,-14400,10017,"NEH,WS"
MVO,FTTM,Mongo Chad,12.1667,18.6833,3600,5906,
MLU,KMLU,Monroe LA,32.5108,-92.0378,-21600,7518,"DL,DVH,NW"
ROB,GLRB,Monrovia Liberia,6.2392,-10.3592,0,11056,"DVH,KLD,PAH"
MBJ,MKJS,Montego Bay Jamaica,18.5031,-77.9128,-18000,8738,"DL,DVH,NW,PAH,VSD,WSH"
MRY,KMRY,Monterey CA,36.5875,-121.843,-28800,7611,RW
MTY,MMMY,Monterrey Mexico,25.7778,-100.106,-21600,10059,"AM,DL,DVH,NW"
MVD,SUMU,Montevideo Uruguay,-34.8375,-56.0306,-10800,10355,"AR,AF,GLO,KLD,PAH"
LEU,LESU,Montferrer Spain,42.3458,1.4144,3600,4515,
MGM,KMGM,Montgomery AL,32.3006,-86.3939,-21600,9002,"DL,DVH,NW"
MPL,LFMT,Montpelier France,43.5761,3.9628,3600,8543,AF
MPV,KMPV,Montpelier VT,44.2033,-72.5619,-18000,5010,NEH
YUL,CYUL,Montreal-Dorval Canada,45.4681,-73.7408,-18000,11030,"AM,AF,DL,DVH,KLD,KL,NEH,NW,WS,WSH"
MTJ,KMTJ,Montrose/Telluride CO,38.5081,-107.894,-25200,10025,DVH
YMX,CYMX,Montréal-Mirabel QC Canada,45.6817,-74.0053,-18000,12020,
MOZ,NTTM,Moorea French Polynesia,-17.4894,-149.762,-39600,4035,
MZI,GAMB,Mopti Mali,14.5083,-4.0842,0,8355,
TVA,FMMR,Morafenobe Madagascar,-17.85,44.9167,10800,2789,
MOV,YMRB,Moranbah Australia,-22.0578,148.077,39600,5027,VA
MLM,MMMM,Morelia Mexico,19.8497,-101.025,-21600,11125,AM
MGW,KMGW,Morgantown WV,39.6428,-79.9161,-18000,5210,
MXN,LFRU,Morlaix France,48.6006,-3.8167,3600,5304,
MXM,FMSR,Morombe Madagascar,-21.75,43.3667,10800,2500,
MOQ,FMMV,Morondava Madagascar,-20.2844,44.3178,10800,4921,
HAH,FMCH,Moroni Comoros,-11.5364,43.2706,10800,9559,"KQD,KQ"
OTI,WAEW,Morotai Indonesia,2.0542,128.3258,28800,7874,
DME,UUDD,Moscow-Domodedovo Russia,55.4075,37.9061,10800,12429,VN
SVO,UUEE,Moscow-Sheremetyevo Russia,55.9717,37.415,10800,11973,"SUD,SU,AF,DL,DVH,KL,PAH,SV"
VKO,UUWW,Moscow-Vnukovo Russia,55.5992,37.2731,10800,11458,
MWH,KMWH,Moses Lake WA,47.2083,-119.319,-28800,13513,NW
MSU,FXMM,Moshoeshoe Lesotho,-29.4436,27.5572,7200,10916,
MJF,ENMS,Mosjøen Norway,65.7833,13.2153,3600,3006,
MOM,GQNL,Moudjeria-Letfotar Mauritania,17.75,-12.5097,0,5249,
MJL,FOGM,Mouila Gabon,-1.8453,11.0564,3600,5906,
MQQ,FTTD,Moundou Chad,8.62,16.0683,3600,9896,
ISA,YBMA,Mount Isa Australia,-20.6625,139.488,36000,8429,VA
MPN,EGYP,Mount Pleasant Falkland Islands,-51.8222,-58.4458,-10800,8498,
UTT,FAUT,Mthata South Africa,-31.5461,28.6747,7200,6562,
BOM,VABB,Mumbai India,19.0878,72.8675,19800,11477,"AF,DL,DVH,JAD,KQD,PAH,SV"
MUC,EDDM,Munich Germany,48.3528,11.7856,3600,13097,"SUD,AF,DL,DVH,KLD,KL,PAH"
FMO,EDDG,Munster/Osnabruck Germany,52.1344,7.6847,3600,7104,
LRH,LFBR,Muret France,43.4492,1.2633,3600,3606,
MMK,ULMM,Murmansk Russia,68.7817,32.7506,10800,8203,SUD
MCT,OOMS,Muscat Oman,23.5925,58.2808,10800,11769,"KLD,KL,SV"
MSL,KMSL,Muscle Shoals AL,34.7453,-87.61,-21600,6690,NW
MKG,KMKG,Muskegon MI,43.1692,-86.2381,-18000,6495,"NCA,NW"
MYR,KMYR,Myrtle Beach SC,33.6792,-78.9281,-18000,9553,"DL,DVH,WSH"
MJT,LGMT,Mytilene Lesbos Island Greece,39.0567,26.5983,7200,7923,
NDJ,FTTJ,N'Djamena Chad,12.1331,15.0333,3600,9214,AF
KDJ,FOGJ,N'Djolé Gabon,-0.1897,10.7519,3600,2500,
NGE,FKKN,N'Gaoundéré Cameroon,7.3581,13.5614,3600,8889,
NZE,GUNZ,N'zerekore Guinea,7.8017,-8.7006,0,4944,
NAN,NFFN,Nadi Fiji,-17.7542,177.4428,39600,10536,"PAH,VA"
NGS,RJFU,Nagasaki Japan,32.9167,129.914,32400,9852,
NGO,RJGG,Nagoya-Centrair Japan,34.8572,136.8039,32400,11897,"MUD,DL,DVH,VN"
NKM,RJNA,Nagoya-Komaki Japan,35.255,136.924,32400,9010,"DVH,NW"
NBO,HKJK,Nairobi Kenya,-1.3189,36.9275,10800,13529,"AF,KQD,KQ,KLD,KL,PAH,SV"
MSZ,FNMO,Namibe Angola,-15.2611,12.1444,3600,8202,
APL,FQNP,Nampula Mozambique,-15.1028,39.2844,7200,6588,"KQD,KQ"
YCD,CYCD,Nanaimo BC Canada,49.0544,-123.87,-28800,6552,WSH
KHN,ZSCN,Nanchang China,28.8644,115.9,28800,11130,"MU,MUD"
NKG,ZSNJ,Nanjing China,31.7394,118.86,28800,11877,"MU,DVH"
NNG,ZGNN,Nanning China,22.6081,108.172,28800,8871,CZ
NTE,LFRS,Nantes France,47.1531,-1.6106,3600,9530,AF
ACK,KACK,Nantucket MA,41.2531,-70.0594,-18000,6313,"DVH,NEH"
NNY,ZHNY,Nanyang China,32.9808,112.6153,28800,2500,
APF,KAPF,Naples FL,26.1525,-81.775,-18000,6374,DVH
NAP,LIRN,Naples Italy,40.8856,14.2906,3600,8687,"AF,AZ,HVD"
NAU,NTGN,Napuka French Polynesia,-14.1764,-141.267,-39600,3958,
NRM,GANK,Nara Mali,15.2369,-7.2681,0,5577,
UAK,BGBW,Narsarsuaq Greenland,61.1606,-45.4256,-10800,6040,NEH
BNA,KBNA,Nashville TN,36.1242,-86.6781,-21600,11030,"DL,DVH,NW,WSH"
NAS,MYNN,Nassau Bahamas,25.0389,-77.4656,-18000,11230,"DL,DVH,PAH"
NAT,SBNT,Natal Brazil,-5.9114,-35.2475,-10800,8545,GLO
NAE,DBBN,Natitingou Benin,10.3833,1.3667,3600,2500,
INU,ANYN,Nauru Island Nauru,-0.5467,166.918,46800,7672,
SUV,NFNA,Nausori Fiji,-18.0442,178.563,46800,6135,PAH
NVT,SBNF,Navegantes Brazil,-26.8783,-48.6503,-7200,5639,GLO
NYT,VYEL,Naypyidaw Myanmar (Burma),19.6233,96.2006,23400,2500,
KDN,FOGE,Ndende Gabon,-2.3692,11.4211,3600,2592,
NLA,FLSK,Ndola Zambia,-12.9944,28.6644,7200,8251,"KQD,KQ"
EAM,OENG,Nejran Saudi Arabia,17.6114,44.4192,10800,10026,
MQP,FAKN,Nelspruit South Africa,-25.3911,31.0992,7200,10576,
EMN,GQNI,Nema Mauritania,16.6094,-7.2956,0,2500,
NQN,SAZN,Neuquén Argentina,-38.9489,-68.1556,-10800,8446,AR
NEV,TKPN,Nevis St Kitts and Nevis,17.2194,-62.5958,-14400,4007,SBS
EWB,KEWB,New Bedford MA,41.6764,-70.9578,-18000,5406,NEH
EWN,KEWN,New Bern NC,35.0728,-77.0428,-18000,6463,DL
HVN,KHVN,New Haven CT,41.2628,-72.8864,-18000,5615,"DVH,NEH"
MSY,KMSY,New Orleans LA,29.9928,-90.2575,-21600,10097,"AS,DL,DVH,NA,NW,PAH"
NBG,KNBG,New Orleans-NAS/Alvin Callendar LA,29.8267,-90.0264,0,8007,
JFK,KJFK,New York-Kennedy NY,40.6392,-73.7789,-18000,14564,"SU,AR,AM,AF,AZ,MU,DL,DVH,KLD,KL,KE,NEH,NW,PAH,SV,VS"
LGA,KLGA,New York-La Guardia NY,40.7767,-73.8722,-18000,7007,"DL,DVH,NEH,NW,PAH,WAH,WS"
EWR,KEWR,New York-Newark NJ,40.6925,-74.1678,-18000,11003,"AS,DL,DVH,NA,NEH,NW,VS"
SWF,KSWF,Newburgh NY,41.5042,-74.1042,-18000,11823,"DL,DVH"
NTL,YWLM,Newcastle Australia,-32.7947,151.834,39600,8002,VA
NCL,EGNT,Newcastle United Kingdom,55.0375,-1.6917,0,7630,"AF,KL"
ZNE,YNWN,Newman Australia,-23.4178,119.803,28800,6805,VA
PHF,KPHF,Newport News VA,37.1317,-76.4931,-18000,8002,"DL,DVH"
EFK,KEFK,Newport VT,44.8881,-72.2283,-18000,5307,NEH
NQY,EGDG,Newquay,50.4406,-4.9953,0,2500,
CXR,VVCR,Nha Trang Vietnam,11.9978,109.219,25200,10000,"VND,VN"
NHA,VVNT,Nha Trang Vietnam - OLD,12.2269,109.2,25200,2500,
NIM,DRRN,Niamey Niger,13.4814,2.1831,3600,9876,AF
NCE,LFMN,Nice France,43.6606,7.2175,3600,9725,"SUD,AF,AZ,DVH,KLD,KL,ME,PAH,ROH"
KIJ,RJSN,Niigata Japan,37.9553,139.121,32400,8192,KE
FNI,LFTW,Nimes France,43.7572,4.4161,3600,8018,
NGB,ZSNB,Ningbo China,29.8231,121.4628,28800,8204,"MU,MUD,VN"
NIX,GANR,Nioro Mali,15.2331,-9.5831,0,4922,
IUE,NIUE,Niue Island New Zealand,-19.0767,-169.928,39600,7662,
NBC,UWKE,Nizhnekamsk Russia,55.5644,52.0922,10800,8264,SUD
NJC,USNN,Nizhnevartovsk Russia,60.9481,76.4814,18000,10617,SUD
GOJ,UWGG,Nizhniy Novgorod Russia,56.2297,43.7842,10800,9270,SU
NOG,MMNG,Nogales Mexico,31.2256,-110.9758,-25200,5904,AMH
OME,PAOM,Nome AK,64.5114,-165.445,-32400,5982,"DVH,WAH"
OFK,KOFK,Norfolk NE,41.9853,-97.435,-21600,5810,NCA
ORF,KORF,Norfolk VA,36.8944,-76.2008,-18000,9016,"DL,DVH,NW"
NGU,KNGU,Norfolk-Oceana NAS VA,36.9375,-76.2892,-18000,8361,
YVQ,CYVQ,Norman Wells NT,65.2811,-126.798,-25200,6146,WAH
OTH,KOTH,North Bend OR,43.4167,-124.246,-28800,5979,RW
ELH,MYEH,North Eleuthera Bahamas,25.4742,-76.6831,-18000,6022,DVH
NHT,EGWU,Northolt United Kingdom,51.5528,-0.4181,0,5535,
ORT,PAOR,Northway AK,62.9611,-141.928,-32400,5084,WAH
NWI,EGSH,Norwich United Kingdom,52.6756,1.2828,0,6027,KL
NOS,FMNN,Nosy Be Madagascar,-13.3108,48.3225,10800,7170,
EMA,EGNX,Nottingham United Kingdom,52.8308,-1.3278,0,9475,
NDB,GQPP,Nouadhibou Mauritania,20.9281,-17.0308,0,8000,
NKC,GQNN,Nouakchott Mauritania,18.0978,-15.9475,0,9900,AF
NCK,GQNO,NouakchottOumtounsy  Mauritania,18.3097,-15.9694,0,11251,
NOU,NWWW,Nouméa-La Tontouta New Caledonia,-22.0158,166.216,39600,10673,PAH
GEA,NWWM,Nouméa-Magenta New Caledonia,-22.2578,166.473,39600,4134,
XNU,DFON,Nouna Burkina Faso,12.7608,-3.875,0,2500,
NOZ,UNWW,Novokuznetsk Russia,53.8117,86.8783,25200,8789,
OVB,UNNT,Novosibirsk Russia,55.0117,82.6517,25200,11815,SU
NUX,USMU,Novy Urengoy Russia,66.0694,76.5192,18000,8366,SUD
NLD,MMNL,Nuevo Laredo Mexico,27.4433,-99.5697,-21600,6596,AM
HNV,NTMD,Nuku Hiva French Polynesia,-8.7947,-140.223,-39600,5581,
TBU,NFTF,Nuku'alofa Tonga,-21.2406,-175.139,46800,8801,VA
NUE,EDDN,Nurnberg Germany,49.4978,11.0778,3600,8843,"AF,KLD,KL,PAH"
OAK,KOAK,Oakland CA,37.7214,-122.221,-28800,10536,"RW,AS,DL,DVH,NW"
OAX,MMOX,Oaxaca Mexico,16.9992,-96.7264,-21600,8166,AM
OBO,RJCB,Obihiro Japan,42.7331,143.217,32400,8215,
OCF,KOCF,Ocala FL,29.1717,-82.2239,-18000,7430,DVH
ODS,UKOO,Odessa Ukraine,46.4267,30.6781,7200,9192,
OGD,KOGD,Ogden Hinckley UT,41.1956,-112.0119,-25200,8109,"DL,NPA"
OGS,KOGS,Ogdensburg NY,44.6817,-75.4653,-18000,6410,
OIT,RJFO,Oita Japan,33.4792,131.737,32400,9881,KE
OKJ,RJOB,Okayama Japan,34.7567,133.855,32400,9839,KE
OKA,ROAH,Okinawa Japan,26.1953,127.647,32400,9872,"CI,NW"
OKC,KOKC,Oklahoma City OK,35.3928,-97.6003,-21600,9835,"DL,DVH,NW,WAH"
OKN,FOGQ,Okondja Gabon,-0.6653,13.6731,3600,4921,
OLB,LIEO,Olbia Italy,40.8981,9.5178,3600,8017,
OLM,KOLM,Olympia WA,46.9689,-122.902,-28800,5507,"RW,NW"
OMA,KOMA,Omaha NE,41.3025,-95.8939,-21600,9518,"DL,NCA,NW,WAH"
OMS,UNOO,Omsk Russia,54.9667,73.3117,25200,9186,SUD
ONS,YOLW,Onslow Australia,-21.6681,115.113,28800,5249,VA
ONT,KONT,Ontario CA,34.0556,-117.601,-28800,12288,"AM,RW,AS,DL,DVH,NW"
ONO,KONO,Ontario OR,44.0192,-117.013,-25200,4529,RW
OST,EBOS,Oostende - Belguim,51.1989,2.8619,3600,10460,
OPF,KOPF,Opa-locka FL,25.9072,-80.2781,-18000,8015,
OMR,LROD,Oradea Romania,47.025,21.9019,7200,5857,ROH
ORN,DAOO,Oran-Es Sénia Algeria,35.6269,-0.6111,3600,12114,
TAF,DAOL,Oran-Tafaraoui Algeria,35.5492,-0.5328,3600,2500,
SNA,KSNA,Orange County CA,33.6756,-117.8675,-28800,5715,"RW,AS,ASH,DL,DVH,NW,WS"
XOG,LFMO,Orange France,44.14,4.8686,3600,7958,
REN,UWOO,Orenburg Russia,51.7947,55.4564,18000,8282,SUD
BGY,LIME,Orio al Serio Italy,45.6683,9.6997,3600,9603,VSD
MCO,KMCO,Orlando FL,28.4289,-81.3156,-18000,12056,"AM,AS,DL,DVH,GLO,KLD,NW,PAH,VS,VSD,WS,WSH"
ORL,KORL,Orlando-Executive FL,28.5453,-81.3328,-18000,6002,
SFB,KSFB,Orlando-Sanford FL,28.7778,-81.2417,-18000,10992,DVH
HOV,ENOV,Orsta-Volda Norway,62.1797,6.0742,3600,2832,
ORU,SLOR,Oruro Bolivia,-17.9556,-67.075,-18000,8202,PAH
ITM,RJOO,Osaka-International Japan,34.7856,135.438,32400,9857,"NW,PAH"
KIX,RJBB,Osaka-Kansai Japan,34.4256,135.2439,32400,13164,"AF,MUD,DL,DVH,KL,NW,VN"
OSN,RKSO,Osan AB Korea,37.0906,127.029,32400,8989,
OSH,KOSH,Oshkosh WI,43.9839,-88.5564,-21600,8015,"NCA,NW"
OSL,ENGM,Oslo Norway,60.1939,11.1003,3600,11835,"SUD,AF,DVH,KL,NW,PAH"
OSR,LKMT,Ostrava Czech Republic,49.6964,18.1111,3600,11518,OK
YOW,CYOW,Ottawa ON Canada,45.3219,-75.6689,-18000,10011,"DL,DVH,KLD,NW,WS,WSH"
OUA,DFFD,Ouagadougou Burkina Faso,12.3531,-1.5117,0,9934,AF
OUG,DFCC,Ouahigouya Burkina Faso,13.5761,-2.4297,0,2500,
OGX,DAUU,Ouargla Algeria,31.9314,5.4067,3600,9843,
OUD,GMFO,Oujda Morocco,34.7856,-1.9256,0,9848,
OUL,EFOU,Oulu Finland,64.9292,25.3556,7200,8183,
UVE,NWWV,Ouvéa Fayaue Island New Caledonia,-20.6406,166.573,39600,3610,
OUE,FCOU,Ouésso Congo,1.6167,16.0331,3600,6726,
OWB,KOWB,Owensboro KY,37.74,-87.1664,-21600,8018,NW
OXR,KOXR,Oxnard CA,34.2003,-119.207,-28800,5965,RW
OYE,FOGO,Oyem Gabon,1.5431,11.5814,3600,5926,
PAD,EDLP,Paderborn/Lippstadt Germany,51.6142,8.6164,3600,7136,
PAH,KPAH,Paducah KY,37.0608,-88.7736,-21600,6505,"DVH,NW"
PGA,KPGA,Page AZ,36.9261,-111.448,-25200,5965,DVH
PPG,NSTU,Pago Pago Western Samoa,-14.3308,-170.711,-39600,10008,PAH
PLF,FTTP,Pala Chad,9.3833,14.9333,3600,2500,
PLQ,EYPA,Palanga Lithuania,55.9733,21.0939,7200,6467,
PKY,WAOP,Palangkaraya Indonesia,-2.2244,113.943,25200,2500,
PLM,WIPP,Palembang Indonesia,-2.8981,104.7,25200,8210,KLD
PMO,LICJ,Palermo Italy,38.1756,13.0906,3600,11182,AZ
PSP,KPSP,Palm Springs CA,33.8289,-116.506,-28800,10004,"RW,DL,DVH,WSH"
PDM,LESB,Palma Son Bonet Spain,39.5986,2.7028,3600,3281,
PMI,LEPA,Palma de Mallorca Spain,39.5492,2.7331,3600,10935,"UX,HVD"
PMD,KPMD,Palmdale CA,34.6292,-118.0844,-28800,11999,DVH
PLW,WAML,Palu Indonesia,-0.9164,119.906,28800,2500,KLD
XPA,DFEP,Pama Burkina Faso,11.2608,-0.7044,0,2500,
PNA,LEPP,Pamplona Spain,42.77,-1.6461,3600,8143,
ECP,KECP,Panama City - NW Florida Beaches FL,30.3417,-85.7967,-21600,10034,"DL,DVH,NW"
PFN,KPFN,Panama City FL (Discontinued),30.2114,-85.6825,-21600,6316,"DVH,NW"
PTY,MPTO,Panama City Panama,9.0706,-79.3831,-18000,10042,"AF,DL,KLD,KL,NW,PAH"
PGK,WIKK,Pangkalpinag Indonesia,-2.1622,106.139,25200,5630,
PNL,LICG,Pantelleria Italy,36.8161,11.9689,3600,5865,
PPT,NTAA,Papeete Tahiti,-17.5531,-149.6069,-39600,11231,"AF,DVH,PAH"
PFO,LCPH,Paphos Cyprus,34.7181,32.4844,7200,8851,HVD
PBO,YPBO,Paraburdoo Australia,-23.1708,117.745,28800,6997,VA
PBM,SMJP,Paramaribo Suriname,5.4528,-55.1878,-10800,11409,"KLD,KL,PAH"
PRA,SAAP,Parana Argentina,-31.7944,-60.4803,-7200,6924,
CDG,LFPG,Paris-De Gaulle France,49.0128,2.5492,3600,13813,"SUD,AM,UX,AF,AZ,OK,DL,DVH,JAD,KQD,KQ,KLD,KL,NW,SV,ROH,VN"
LBG,LFPB,Paris-Le Bourget France,48.9683,2.4406,3600,9845,KLD
ORY,LFPO,Paris-Orly France,48.7242,2.3581,3600,11962,"AF,DVH,KLD,PAH,HVD"
PMF,LIMP,Parma Italy,44.8219,10.2953,3600,6794,
PBH,VQPR,Paro Bhutan,27.4028,89.4264,19800,6522,DVH
PSC,KPSC,Pasco/Richland WA,46.2642,-119.119,-28800,7724,"RW,AS,DL,NW"
PRB,KPRB,Paso Robles CA,35.6728,-120.627,-28800,6020,RW
PUF,LFBP,Pau France,43.38,-0.4186,3600,8304,AF
PKU,WIBB,Pekanbaru Indonesia,0.4608,101.444,25200,7095,KLD
PLN,KPLN,Pellston MI,45.5706,-84.7967,-18000,6506,"DL,DVH,NCA"
PEN,WMKP,Penang Malaysia,5.2967,100.277,28800,11034,"CI,KLD"
PDT,KPDT,Pendleton OR,45.6944,-118.8408,-28800,6288,ASH
PNS,KPNS,Pensacola FL,30.4731,-87.1872,-21600,7019,"DL,DVH,NW"
YYF,CYYF,Penticton BC Canada,49.4625,-119.602,-28800,6010,WSH
PIA,KPIA,Peoria IL,40.6639,-89.6928,-21600,10121,"DL,NW"
PEI,SKPE,Pereira Colombia,4.8125,-75.7394,-18000,6431,
PEE,USPP,Perm Russia,57.9133,56.0231,25200,8414,SU
PGF,LFMP,Perpignan France,42.7403,2.8706,3600,8210,
PER,YPPH,Perth Australia,-31.9406,115.9669,28800,11326,VA
PEG,LIRZ,Perugia Italy,43.0958,12.5131,3600,7236,
PSR,LIBP,Pescara Italy,42.4369,14.1869,3600,7999,
PEW,OPPS,Peshawar Pakistan,33.9939,71.5144,18000,9034,SV
PSG,PAPG,Petersburg AK,56.8017,-132.945,-32400,5990,
PKC,UHPP,Petropavlovsk Russia,53.1678,158.454,43200,11169,SUD
PHL,KPHL,Philadelphia PA,39.8708,-75.2403,-18000,11985,"RW,AS,DL,DVH,NEH,NW,PAH"
PNH,VDPP,Phnom Penh Cambodia,11.5464,104.844,25200,9859,"KE,VN"
PHX,KPHX,Phoenix AZ,33.4336,-112.0067,-25200,11478,"AMH,RW,AS,DL,DVH,NW,WAH,WS,WSH"
HKT,VTSP,Phuket Thailand,8.1106,98.3125,25200,9876,"SUD,KE"
PQC,VVPQ,Phú Quóc Vietnam,10.1717,103.991,25200,6889,VN
PDS,MMPG,Piedras Negras Mexico,28.6272,-100.535,-21600,6725,
PIR,KPIR,Pierre SD,44.3819,-100.2858,-21600,6901,"NCA,NW,WAH"
PSA,LIRP,Pisa Italy,43.6836,10.3922,3600,9825,"DVH,HVD"
PIT,KPIT,Pittsburgh PA,40.4914,-80.2328,-18000,11482,"DL,DVH,NW"
PSF,KPSF,Pittsfield MA,42.4275,-73.2906,-18000,5784,NEH
THU,BGTL,Pituffik Greenland,76.5308,-68.7031,0,10004,
PVW,KPVW,Plainview TX,34.1681,-101.717,-21600,5996,
PIJ,FSPL,Platte Island Seychelles,-5.8597,55.3836,14400,2500,
PBG,KPBG,Plattsburgh NY,44.6508,-73.4681,-18000,11771,
PXU,VVPK,Pleiku Vietnam,14.0044,108.017,25200,7874,VN
PIH,KPIH,Pocatello ID,42.9108,-112.5958,-25200,9075,"DL,NPA,NW"
POD,GOSP,Podar Senegal,16.6864,-14.9703,0,5085,
TGD,LYPG,Podgorica Montenegro,42.3594,19.2519,3600,8206,
KPO,RKTH,Pohang South Korea,35.9878,129.421,32400,6989,
PTP,TFFR,Pointe a Pitre Guadeloupe,16.2653,-61.5306,-14400,11515,"AF,DVH,PAH,SBS"
PNR,FCPP,Pointe-Noire Congo,-4.8128,11.8853,3600,8610,AF
PIS,LFBI,Poitiers France,46.5872,0.3067,3600,7723,
PTG,FAPP,Polokwane South Africa,-23.8494,29.4564,7200,10488,
PNI,PTPN,Ponapei Micronesia,6.985,158.209,0,6001,
PSE,TJPS,Ponce PR,18.0081,-66.5628,-14400,7921,DVH
PDL,LPPD,Ponta Delgada Azores,37.7408,-25.6978,-3600,8216,DVH
PTK,KPTK,Pontiac MI,42.6653,-83.4203,-18000,6510,
CLM,KCLM,Port Angeles WA,48.1203,-123.5,-28800,6357,NW
WPB,FMNG,Port Berge Madagascar,-15.5839,47.6256,10800,2500,
PLZ,FAPE,Port Elizabeth South Africa,-33.9842,25.6167,7200,6497,
POG,FOOG,Port Gentil Gabon,-0.7192,8.7511,3600,6261,
PHC,DNPO,Port Harcourt Nigeria,5.0153,6.9494,3600,9884,AF
PHE,YPPD,Port Hedland Australia,-20.3778,118.626,28800,8217,VA
PLO,YPLC,Port Lincoln Australia,-34.6053,135.8803,37800,4926,VAH
MRU,FIMP,Port Louis Mauritius,-20.43,57.6831,14400,11073,"AF,KQD"
PQQ,YPMQ,Port Macquarie Australia,-31.4356,152.863,39600,5926,VA
POM,AYPY,Port Moresby Papua New Guinea,-9.4425,147.2197,36000,9053,PAH
GND,TGPY,Port Salines Grenada,12.0039,-61.7856,-14400,9018,"DL,DVH,VSD"
PSY,SFAL,Port Stanley Falkland Islands,-51.685,-57.7778,-10800,3624,
PAP,MTPP,Port au Prince Haiti,18.5794,-72.2925,-18000,9970,"AF,DL,DVH,KLD,PAH"
POS,TTPP,Port of Spain Trinidad & Tobago,10.5953,-61.3356,-14400,10512,"DVH,KLD,PAH,WSH"
VLI,NVVV,Port-Vila New Hebrides,-17.6992,168.32,39600,8535,
PWM,KPWM,Portland ME,43.6461,-70.3086,-18000,7188,"DL,DVH,NEH,NW"
PDX,KPDX,Portland OR,45.5875,-122.5978,-28800,10990,"RW,AS,ASH,DL,DVH,NW,WAH"
POA,SBPA,Porto Alegre Brazil,-29.9931,-51.1703,-7200,7480,"AR,GLO,PAH"
BNI,DNBE,Porto Novo Benin,6.3169,5.5994,3600,7892,
OPO,LPPR,Porto Portugal,41.2475,-8.6811,0,11441,"UX,KLD,HVD"
PXO,LPPS,Porto Santo Madeira Portugal,33.0733,-16.3494,0,9898,
BPS,SBPS,Porto Seguro Brazil,-16.4331,-39.0831,-7200,6572,
PVH,SBPV,Porto Velho Brazil,-8.7133,-63.9028,-14400,7936,PAH
PSS,SARP,Posadas Argentina,-27.3856,-55.9706,-10800,7410,AR
PAZ,MMPA,Poza Rica Mexico,20.6025,-97.4606,-21600,5887,AM
POZ,EPPO,Poznan Polland,52.4211,16.8264,3600,8241,
PRG,LKPR,Prague Czech Republic,50.0997,14.2592,3600,12168,"SUD,AF,OK,DVH,KLD,KL,PAH"
PRI,FSPP,Praslin Island Seychelles,-4.3192,55.6917,14400,4618,
LOP,WADL,Praya Indonesia,-8.7508,116.268,28800,9038,
PRC,KPRC,Prescott AZ,34.6542,-112.419,-25200,7638,RW
PQI,KPQI,Presque Isle ME,46.6889,-68.0444,-18000,7445,"DVH,NEH"
PRY,FAWB,Pretoria South Africa,-25.6553,28.2211,7200,5995,
PVK,LGPZ,Preveza/Lefkada Greece,38.9256,20.765,7200,9798,
YXS,CYXS,Prince George BC Canada,53.8839,-122.6769,-28800,11491,"WS,WSH"
PRN,BKPR,Pristina Kosovo,42.5728,21.0356,3600,8225,
PPP,YBPN,Proserpine Australia,-20.495,148.552,39600,6810,VA
PVD,KPVD,Providence RI,41.7239,-71.4281,-18000,8728,"DL,DVH,NW,PAH"
PLS,MBPV,Providenciales Turks and Caicos,21.7731,-72.2656,-18000,7618,"DL,DVH"
PVU,KPVU,Provo Muni UT,40.2192,-111.723,-25200,8608,DL
PBC,MMPB,Puebla Mexico,19.1581,-98.3714,-21600,11902,"AM,NW"
PUB,KPUB,Pueblo CO,38.2897,-104.4978,-25200,10480,DVH
PPE,MMPE,Puerto Penasco Mexico,31.3517,-113.5258,-25200,4920,AMH
POP,MDPP,Puerto Plata Dominican Republic,19.7564,-70.5692,-18000,10108,"KLD,SBS"
PVR,MMPR,Puerto Vallarta Mexico,20.6792,-105.254,-21600,10229,"AM,DL,DVH,NW,WSH"
FUE,GCFV,Puerto del Rosario Spain,28.4528,-13.8639,-3600,10744,
PUY,LDPL,Pula Croatia,44.8933,13.9219,3600,9609,
PUW,KPUW,Pullman ID,46.7431,-117.109,-28800,6719,"RW,AS"
PUQ,SCCI,Punta Arenas Chile,-53.0033,-70.8531,-10800,10161,
PUJ,MDPC,Punta Cana Dominican Republic,18.5667,-68.3625,-18000,10188,"AR,AF,DL,DVH,SBS,WSH"
PGD,KPGD,Punta Gorda FL,26.9189,-81.9908,-18000,7216,DVH
PUS,RKPK,Pusan South Korea,35.1789,128.9378,32400,10516,"DVH,KE,KEH,NW,VN"
PSU,WIOP,Putussibau Indonesia,0.8356,112.937,25200,4593,
FNJ,ZKPY,Pyongyang North Korea,39.2447,125.676,32400,13417,
JQA,BGUQ,Qaarsut Airport Greenland,70.7342,-52.6961,-10800,2942,
TAO,ZSQD,Qingdao China,36.2642,120.375,28800,11175,"MU,MUD"
NDG,ZYQQ,Qiqihar China,47.2392,123.9178,28800,8530,CZH
JJN,ZSQZ,Quanzhou China,24.7961,118.589,28800,8530,
YQB,CYQB,Quebec QC Canada,46.7881,-71.3967,-18000,9073,"DL,DVH,WS,WSH"
ZQN,NZQN,Queenstown New Zealand,-45.0242,168.7428,46800,6194,VA
UEL,FQQL,Quelimane Mozambique,-17.8553,36.8686,7200,6104,
QRO,MMQT,Queretaro Mexico,20.6217,-100.188,-21600,11481,AM
UIH,VVPC,Qui Nhon Vietnam,13.955,109.042,25200,10000,VN
UIP,LFRQ,Quimper France,47.9747,-4.1678,3600,7041,
UIO,SEQM,Quito Ecuador,-0.1289,-78.3564,-18000,13534,"AM,DL,KL"
JTC,SEQQ,Quito-Old Mariscal Ecuador,-0.1406,-78.4875,-18000,2500,"AMH,DVH,KLD"
BZZ,EGVN,RAF Brize Norton United Kingdom,51.7497,-1.5828,3600,9984,
RBA,GMME,Rabat Morocco,34.0506,-6.7514,0,11511,"AF,PAH"
BVC,GVBA,Rabil-Cape Verde,16.1367,-22.8881,-3600,6901,
VKG,VVRG,Rach Gia Vietnam,9.9581,105.132,25200,4921,VN
RAH,OERF,Rafha Saudi Arabia,29.6264,43.4906,10800,9840,SV
RFP,NTTR,Raiatea French Polynesia,-16.7228,-151.466,-39600,4588,
NAV,NTAV,Raivavae French Polynesia,-23.8839,-147.664,-39600,4593,
ATQ,VIAR,Raja Sansi Int Amritsar India,31.7094,74.7969,19800,11874,JAD
RDU,KRDU,Raleigh/Durham NC,35.8776,-78.7875,-18000,10008,"DL,DVH,NW"
RMS,ETAR,Ramstein AB Germany,49.4367,7.6003,3600,10478,
RGI,NTTG,Rangiroa French Polynesia,-14.9528,-147.658,-39600,6897,
RAP,KRAP,Rapid City SD,44.0447,-103.0578,-25200,8707,"DL,NCA,NW,WAH"
RAR,NCRG,Rarotongo Cook Islands,-21.2006,-159.795,-36000,7634,
RKT,OMRK,Ras Al-Khaimah UAE,25.6131,55.9389,14400,12382,
REC,SBRF,Recife Brazil,-8.1258,-34.9228,-10800,11127,"DVH,GLO,PAH"
RDD,KRDD,Redding CA,40.5089,-122.293,-28800,7020,RW
RDM,KRDM,Redmond OR,44.2533,-121.15,-28800,7033,"RW,AS,DL,DVH,NW"
REG,LICR,Reggio Calabria Italy,38.0706,15.6514,3600,6953,"AZ,AZD"
YQR,CYQR,Regina SK Canada,50.4317,-104.666,-21600,7911,"DL,NW,WS,WSH"
REM,FSSR,Remire Island Seychelles,-5.1156,53.3114,14400,2500,
RGT,WIPR,Rengat Indonesia,-0.3528,102.335,25200,2500,
RNS,LFRN,Rennes France,48.0694,-1.7347,3600,6899,AF
RNO,KRNO,Reno NV,39.4981,-119.768,-28800,11008,"RW,AS,DL,DVH,NW"
RNT,KRNT,Renton Municipal WA,47.4931,-122.216,-28800,5380,
FRG,KFRG,Republic Farmingdale NY,40.7286,-73.4133,-18000,6845,
RES,SARE,Resistencia Argentina,-27.4497,-59.0556,-10800,9100,AR
YRB,CYRB,Resolute Bay NU Canada,74.7167,-94.9692,-21600,6477,
REK,BIRK,Reykjavik Iceland,64.1294,-21.9406,-3600,5133,"KLD,NEH"
REX,MMRX,Reynosa Mexico,26.0089,-98.2283,-25200,6224,AM
RHI,KRHI,Rhinelander WI,45.6308,-89.4669,-21600,6787,"DL,NCA,NW"
RHO,LGRP,Rhodes Greece,36.4047,28.0856,7200,10832,"KLD,HV,HVD"
RIB,SLRI,Riberalta Bolivia,-11.0097,-66.0728,-18000,5914,PAH
RDT,GOSR,Richard Toll Senegal,16.4375,-15.6569,0,5085,
RIF,KRIF,Richfield UT,38.7339,-112.101,-25200,6603,DVH
RIC,KRIC,Richmond VA,37.505,-77.3192,-18000,9033,"DL,DVH,NW"
RIL,KRIL,Rifle CO,39.5264,-107.7278,-25200,6989,WAH
RIX,EVRA,Riga Latvia,56.9231,23.9706,7200,10488,SUD
RMI,LIPR,Rimini Italy,44.0203,12.6117,3600,9821,
RMT,NTAM,Rimitara French Polynesia,-22.6369,-152.805,-39600,4603,
RBR,SBRB,Rio Branco Acre Brazil,-9.8686,-67.8939,-14400,7180,
SDU,SBRJ,Rio De Janeiro-Santos Dumont-Brazil,-22.9103,-43.1628,-7200,4367,GLO
RGL,SAWG,Rio Gallegos Argentina,-51.6089,-69.3125,-18000,11876,AR
RGA,SAWE,Rio Grande Argentina,-53.7775,-67.75,-10800,6546,AR
RHD,SANR,Rio Hondo Argentina,-27.4967,-64.9358,-7200,8202,
GIG,SBGL,Rio de JaneiroGaleao Brazil,-22.8089,-43.2431,-7200,13204,"AR,AM,AF,DL,DVH,GLO,KLD,KL,PAH"
RAL,KRAL,Riverside CA,33.9517,-117.4447,-28800,5404,RW
RUH,OERK,Riyadh Saudi Arabia,24.9575,46.6978,10800,13829,"AF,ME,PAH,SV,SVD"
ROA,KROA,Roanoke VA,37.3253,-79.9753,-18000,6816,"DL,DVH,NW"
RTB,MHRO,Roatan Honduras,16.3167,-86.5217,-21600,9083,DL
RST,KRST,Rochester MN,43.9069,-92.4989,-21600,9032,"DL,NCA,NW"
ROC,KROC,Rochester NY,43.1189,-77.6725,-18000,8009,"DL,DVH,PAH"
RSD,MYER,Rock Sound Bahamas,24.8917,-76.1778,-18000,7178,PAH
RKS,KRKS,Rock Springs WY,41.5942,-109.065,-25200,9986,
RFD,KRFD,Rockford IL,42.1953,-89.0969,-21600,9993,NW
ROK,YBRK,Rockhampton Australia,-23.3817,150.475,36000,8647,VA
